[
  {
    "category": "other",
    "emoji": "âœ¨",
    "id": 1,
    "image": "https://www.jp-api.com/images/tphoto_575304_0_b.png",
    "lat": 34.968498534468765,
    "lng": 135.77323152934161,
    "name": "ä¼è¦‹ç¨²è·ã€€ãƒãƒ¼ãƒ",
    "region": "è¿‘ç•¿",
    "search_location": "äº¬éƒ½"
  },
  {
    "category": "other",
    "emoji": "âœ¨",
    "id": 2,
    "image": "https://www.jp-api.com/images/tphoto_575303_0_b.png",
    "lat": 34.96645498840038,
    "lng": 135.77235327491965,
    "name": "ä¼è¦‹ç¨²è·ã€€ãŒã¾å£",
    "region": "è¿‘ç•¿",
    "search_location": "äº¬éƒ½"
  },
  {
    "category": "tag",
    "emoji": "ğŸ·ï¸",
    "id": 3,
    "image": "https://www.jp-api.com/images/tphoto_575186_0_b.png",
    "lat": 34.94606249104503,
    "lng": 138.94475761717666,
    "name": "è¡Œå¾³ã¿ã“ã—ã€€ãƒ€ã‚¤ã‚«ãƒƒãƒˆã‚­ãƒ¼ãƒ›ãƒ«ãƒ€ãƒ¼",
    "region": "å…¶ä»–",
    "search_location": "å¸‚å·å¸‚"
  },
  {
    "category": "tag",
    "emoji": "ğŸ·ï¸",
    "id": 4,
    "image": "https://www.jp-api.com/images/tphoto_575185_0_b.png",
    "lat": 34.40652735514682,
    "lng": 132.4364846720873,
    "name": "æ¢¨ã€€ãƒ€ã‚¤ã‚«ãƒƒãƒˆã‚­ãƒ¼ãƒ›ãƒ«ãƒ€ãƒ¼",
    "region": "ä¸­åœ‹",
    "search_location": "å¸‚å·å¸‚"
  },
  {
    "category": "socks",
    "emoji": "ğŸ§¦",
    "id": 5,
    "image": "https://www.jp-api.com/images/tphoto_575184_0_b.png",
    "lat": 35.675886453000565,
    "lng": 139.66016765031657,
    "name": "é»’ãŸã¾ã”ã€€ã‚½ãƒƒã‚¯ã‚¹",
    "region": "é—œæ±",
    "search_location": "å¤§æ¶Œè°·"
  },
  {
    "category": "socks",
    "emoji": "ğŸ§¦",
    "id": 6,
    "image": "https://www.jp-api.com/images/tphoto_575165_0_b.png",
    "lat": 35.04104571422438,
    "lng": 139.04881245056413,
    "name": "ã„ã¡ã”ã€€ã‚½ãƒƒã‚¯ã‚¹",
    "region": "å…¶ä»–",
    "search_location": "éœå²¡"
  },
  {
    "category": "socks",
    "emoji": "ğŸ§¦",
    "id": 7,
    "image": "https://www.jp-api.com/images/tphoto_575164_0_b.png",
    "lat": 35.059899647647455,
    "lng": 139.0568930520469,
    "name": "æ·±è°·ã­ãã€€ã‚½ãƒƒã‚¯ã‚¹",
    "region": "å…¶ä»–",
    "search_location": "åŸ¼ç‰"
  },
  {
    "category": "socks",
    "emoji": "ğŸ§¦",
    "id": 8,
    "image": "https://www.jp-api.com/images/tphoto_574971_0_b.png",
    "lat": 34.94312059748122,
    "lng": 139.0476017985616,
    "name": "ã‚»ãƒ³ãƒˆãƒãƒ¼ãƒ«å¤§è–å ‚è·¡ã€€ã‚½ãƒƒã‚¯ã‚¹",
    "region": "å…¶ä»–",
    "search_location": "æ¾³é–€"
  },
  {
    "category": "tag",
    "emoji": "ğŸ·ï¸",
    "id": 9,
    "image": "https://www.jp-api.com/images/tphoto_574903_0_b.png",
    "lat": 43.054468855369684,
    "lng": 141.34873603824158,
    "name": "å°æ¨½é‹æ²³ã€€ãƒ€ã‚¤ã‚«ãƒƒãƒˆã‚­ãƒ¼ãƒ›ãƒ«ãƒ€ãƒ¼",
    "region": "åŒ—æµ·é“",
    "search_location": "åŒ—æµ·é“"
  },
  {
    "category": "tag",
    "emoji": "ğŸ·ï¸",
    "id": 10,
    "image": "https://www.jp-api.com/images/tphoto_574847_0_b.png",
    "lat": 35.05593950247776,
    "lng": 139.05715406896616,
    "name": "ç«¿ç¯ã¾ã¤ã‚Šã€€ãƒ€ã‚¤ã‚«ãƒƒãƒˆã‚­ãƒ¼ãƒ›ãƒ«ãƒ€ãƒ¼",
    "region": "å…¶ä»–",
    "search_location": "ç§‹ç”°"
  },
  {
    "category": "socks",
    "emoji": "ğŸ§¦",
    "id": 11,
    "image": "https://www.jp-api.com/images/tphoto_574693_0_b.png",
    "lat": 33.60278712018627,
    "lng": 130.44121017391663,
    "name": "é»’è±šã€€ã‚½ãƒƒã‚¯ã‚¹",
    "region": "ä¹å·",
    "search_location": "é¹¿å…å³¶"
  },
  {
    "category": "plush",
    "emoji": "ğŸ§¸",
    "id": 12,
    "image": "https://www.jp-api.com/images/tphoto_574627_0_b.png",
    "lat": 43.09536112288113,
    "lng": 141.39803258305952,
    "name": "ãƒ©ãƒ™ãƒ³ãƒ€ãƒ¼ã€€ã¬ã„ãã‚‹ã¿ã‚­ãƒ¼ãƒã‚§ãƒ¼ãƒ³",
    "region": "åŒ—æµ·é“",
    "search_location": "åŒ—æµ·é“"
  },
  {
    "category": "socks",
    "emoji": "ğŸ§¦",
    "id": 13,
    "image": "https://www.jp-api.com/images/tphoto_574523_0_b.png",
    "lat": 35.03073350296006,
    "lng": 138.973561575428,
    "name": "ã‚¨ãƒƒã‚°ã‚¿ãƒ«ãƒˆã€€ã‚½ãƒƒã‚¯ã‚¹",
    "region": "å…¶ä»–",
    "search_location": "æ¾³é–€"
  },
  {
    "category": "other",
    "emoji": "âœ¨",
    "id": 14,
    "image": "https://www.jp-api.com/images/tphoto_574472_0_b.png",
    "lat": 35.009326533789206,
    "lng": 135.76706554608387,
    "name": "ãƒ‹ãƒ‡ãƒƒã‚¯äº¬éƒ½ã‚¿ãƒ¯ãƒ¼ã€€è¨˜å¿µãƒ¡ãƒ€ãƒ«",
    "region": "è¿‘ç•¿",
    "search_location": "äº¬éƒ½"
  },
  {
    "category": "plush",
    "emoji": "ğŸ§¸",
    "id": 15,
    "image": "https://www.jp-api.com/images/tphoto_574471_0_b.png",
    "lat": 35.07285056176855,
    "lng": 138.92907978272513,
    "name": "ã‚¨ãƒƒã‚°ã‚¿ãƒ«ãƒˆã€€ã¬ã„ãã‚‹ã¿ã‚­ãƒ¼ãƒã‚§ãƒ¼ãƒ³",
    "region": "å…¶ä»–",
    "search_location": "æ¾³é–€"
  },
  {
    "category": "plush",
    "emoji": "ğŸ§¸",
    "id": 16,
    "image": "https://www.jp-api.com/images/tphoto_574282_0_b.png",
    "lat": 34.718607611820055,
    "lng": 135.49602873803283,
    "name": "ã¿ã‹ã‚“ã€€ã¬ã„ãã‚‹ã¿ã‚­ãƒ¼ãƒã‚§ãƒ¼ãƒ³",
    "region": "è¿‘ç•¿",
    "search_location": "éœå²¡"
  },
  {
    "category": "plush",
    "emoji": "ğŸ§¸",
    "id": 17,
    "image": "https://www.jp-api.com/images/tphoto_574281_0_b.png",
    "lat": 34.94849614277035,
    "lng": 138.97630270266123,
    "name": "ä¿¡æ¥½ãŸã¬ãã€€ã¬ã„ãã‚‹ã¿ã‚­ãƒ¼ãƒã‚§ãƒ¼ãƒ³",
    "region": "å…¶ä»–",
    "search_location": "æ»‹è³€"
  },
  {
    "category": "tag",
    "emoji": "ğŸ·ï¸",
    "id": 18,
    "image": "https://www.jp-api.com/images/tphoto_574280_0_b.png",
    "lat": 34.94774499582709,
    "lng": 138.97087963482625,
    "name": "èŠ‹ç„¼é…ã€€ãƒ€ã‚¤ã‚«ãƒƒãƒˆã‚­ãƒ¼ãƒ›ãƒ«ãƒ€ãƒ¼",
    "region": "å…¶ä»–",
    "search_location": "é¹¿å…å³¶"
  },
  {
    "category": "plush",
    "emoji": "ğŸ§¸",
    "id": 19,
    "image": "https://www.jp-api.com/images/tphoto_574130_0_b.png",
    "lat": 34.93918015720176,
    "lng": 139.0639628722198,
    "name": "å¿è€…ã€€ã¬ã„ãã‚‹ã¿ã‚­ãƒ¼ãƒã‚§ãƒ¼ãƒ³",
    "region": "å…¶ä»–",
    "search_location": "æ»‹è³€"
  },
  {
    "category": "tag",
    "emoji": "ğŸ·ï¸",
    "id": 20,
    "image": "https://www.jp-api.com/images/tphoto_573968_0_b.png",
    "lat": 34.99177041331859,
    "lng": 138.95026918702888,
    "name": "ã‚«ãƒ³ã‚¬ãƒ«ãƒ¼ã€€ãƒ€ã‚¤ã‚«ãƒƒãƒˆã‚­ãƒ¼ãƒ›ãƒ«ãƒ€ãƒ¼",
    "region": "å…¶ä»–",
    "search_location": "æ¾³æ´²"
  },
  {
    "category": "tag",
    "emoji": "ğŸ·ï¸",
    "id": 21,
    "image": "https://www.jp-api.com/images/tphoto_573967_0_b.png",
    "lat": 35.04936186556135,
    "lng": 138.92519093917892,
    "name": "ã‚³ã‚¢ãƒ©ã€€ãƒ€ã‚¤ã‚«ãƒƒãƒˆã‚­ãƒ¼ãƒ›ãƒ«ãƒ€ãƒ¼",
    "region": "å…¶ä»–",
    "search_location": "æ¾³æ´²"
  },
  {
    "category": "plush",
    "emoji": "ğŸ§¸",
    "id": 22,
    "image": "https://www.jp-api.com/images/tphoto_573810_0_b.png",
    "lat": 34.953285954151205,
    "lng": 138.99279201889985,
    "name": "æ·±è°·ã­ãã€€ã¬ã„ãã‚‹ã¿ã‚­ãƒ¼ãƒã‚§ãƒ¼ãƒ³",
    "region": "å…¶ä»–",
    "search_location": "åŸ¼ç‰"
  },
  {
    "category": "tag",
    "emoji": "ğŸ·ï¸",
    "id": 23,
    "image": "https://www.jp-api.com/images/tphoto_573809_0_b.png",
    "lat": 34.97511758998819,
    "lng": 138.98802706438843,
    "name": "æ¡œãˆã³ã€€ãƒ€ã‚¤ã‚«ãƒƒãƒˆã‚­ãƒ¼ãƒ›ãƒ«ãƒ€ãƒ¼",
    "region": "å…¶ä»–",
    "search_location": "éœå²¡"
  },
  {
    "category": "plush",
    "emoji": "ğŸ§¸",
    "id": 24,
    "image": "https://www.jp-api.com/images/tphoto_573794_0_b.png",
    "lat": 38.26033800942278,
    "lng": 140.93912709324877,
    "name": "ã‚ã‚“ã“ãã°ã€€ã¬ã„ãã‚‹ã¿ã‚­ãƒ¼ãƒã‚§ãƒ¼ãƒ³",
    "region": "æ±åŒ—",
    "search_location": "å²©æ‰‹"
  },
  {
    "category": "plush",
    "emoji": "ğŸ§¸",
    "id": 25,
    "image": "https://www.jp-api.com/images/tphoto_573793_0_b.png",
    "lat": 35.629494321284305,
    "lng": 139.64979092055603,
    "name": "æ±äº¬ã‚¿ãƒ¯ãƒ¼ã€€ã¬ã„ãã‚‹ã¿ã‚­ãƒ¼ãƒã‚§ãƒ¼ãƒ³",
    "region": "é—œæ±",
    "search_location": "æ±äº¬"
  },
  {
    "category": "plush",
    "emoji": "ğŸ§¸",
    "id": 26,
    "image": "https://www.jp-api.com/images/tphoto_573791_0_b.png",
    "lat": 34.97888688035425,
    "lng": 138.93207356623392,
    "name": "è—¤ã®èŠ±ã€€ã¬ã„ãã‚‹ã¿ã‚­ãƒ¼ãƒã‚§ãƒ¼ãƒ³",
    "region": "å…¶ä»–",
    "search_location": "è¶³åˆ©"
  },
  {
    "category": "tag",
    "emoji": "ğŸ·ï¸",
    "id": 27,
    "image": "https://www.jp-api.com/images/tphoto_573790_0_b.png",
    "lat": 26.160996503375177,
    "lng": 127.7435534171784,
    "name": "ç´…èŠ‹ã‚¿ãƒ«ãƒˆã€€ãƒ€ã‚¤ã‚«ãƒƒãƒˆã‚­ãƒ¼ãƒ›ãƒ«ãƒ€ãƒ¼",
    "region": "æ²–ç¹©",
    "search_location": "æ²–ç¹©"
  },
  {
    "category": "tag",
    "emoji": "ğŸ·ï¸",
    "id": 28,
    "image": "https://www.jp-api.com/images/tphoto_573789_0_b.png",
    "lat": 34.99154434310017,
    "lng": 139.05991663115924,
    "name": "éŠ€æ²³é‰„é“ã€€ãƒ€ã‚¤ã‚«ãƒƒãƒˆã‚­ãƒ¼ãƒ›ãƒ«ãƒ€ãƒ¼",
    "region": "å…¶ä»–",
    "search_location": "å²©æ‰‹"
  },
  {
    "category": "tag",
    "emoji": "ğŸ·ï¸",
    "id": 29,
    "image": "https://www.jp-api.com/images/tphoto_573781_0_b.png",
    "lat": 34.94738989566925,
    "lng": 139.0118104751731,
    "name": "ã‚¢ã‚ºãƒ¬ãƒ¼ã‚¸ãƒ§ã€€ãƒ€ã‚¤ã‚«ãƒƒãƒˆã‚­ãƒ¼ãƒ›ãƒ«ãƒ€ãƒ¼",
    "region": "å…¶ä»–",
    "search_location": "æ¾³é–€"
  },
  {
    "category": "plush",
    "emoji": "ğŸ§¸",
    "id": 30,
    "image": "https://www.jp-api.com/images/tphoto_573780_0_b.png",
    "lat": 34.68575955240655,
    "lng": 135.80316881556814,
    "name": "é¹¿ã€€ã¬ã„ãã‚‹ã¿ã‚­ãƒ¼ãƒã‚§ãƒ¼ãƒ³",
    "region": "è¿‘ç•¿",
    "search_location": "å¥ˆè‰¯"
  },
  {
    "category": "tag",
    "emoji": "ğŸ·ï¸",
    "id": 31,
    "image": "https://www.jp-api.com/images/tphoto_573746_0_b.png",
    "lat": 35.74626199007935,
    "lng": 139.72214080779636,
    "name": "æ°´æˆ¸ç´è±†ã€€ãƒ€ã‚¤ã‚«ãƒƒãƒˆã‚­ãƒ¼ãƒ›ãƒ«ãƒ€ãƒ¼",
    "region": "é—œæ±",
    "search_location": "èŒ¨åŸ"
  },
  {
    "category": "tag",
    "emoji": "ğŸ·ï¸",
    "id": 32,
    "image": "https://www.jp-api.com/images/tphoto_573745_0_b.png",
    "lat": 35.708903591252756,
    "lng": 139.69781490014006,
    "name": "æ ƒæœ¨ãƒ¬ãƒ¢ãƒ³ã€€ãƒ€ã‚¤ã‚«ãƒƒãƒˆã‚­ãƒ¼ãƒ›ãƒ«ãƒ€ãƒ¼",
    "region": "é—œæ±",
    "search_location": "æ ƒæœ¨"
  },
  {
    "category": "plush",
    "emoji": "ğŸ§¸",
    "id": 33,
    "image": "https://www.jp-api.com/images/tphoto_573628_0_b.png",
    "lat": 43.130015802423024,
    "lng": 141.39475205503322,
    "name": "ãƒ¡ãƒ­ãƒ³ã€€ã¬ã„ãã‚‹ã¿ã‚­ãƒ¼ãƒã‚§ãƒ¼ãƒ³",
    "region": "åŒ—æµ·é“",
    "search_location": "åŒ—æµ·é“"
  },
  {
    "category": "tag",
    "emoji": "ğŸ·ï¸",
    "id": 34,
    "image": "https://www.jp-api.com/images/tphoto_573626_0_b.png",
    "lat": 34.97528715309499,
    "lng": 139.06440421379864,
    "name": "ã‚«ãƒ³ãƒ•ãƒ¼ã€€ãƒ€ã‚¤ã‚«ãƒƒãƒˆã‚­ãƒ¼ãƒ›ãƒ«ãƒ€ãƒ¼",
    "region": "å…¶ä»–",
    "search_location": "é¦™æ¸¯"
  },
  {
    "category": "tag",
    "emoji": "ğŸ·ï¸",
    "id": 35,
    "image": "https://www.jp-api.com/images/tphoto_573625_0_b.png",
    "lat": 35.0231098787961,
    "lng": 138.937170975023,
    "name": "ãƒ“ã‚¯ãƒˆãƒªã‚¢ãƒãƒ¼ãƒãƒ¼ã€€ãƒ€ã‚¤ã‚«ãƒƒãƒˆã‚­ãƒ¼ãƒ›ãƒ«ãƒ€ãƒ¼",
    "region": "å…¶ä»–",
    "search_location": "é¦™æ¸¯"
  },
  {
    "category": "tag",
    "emoji": "ğŸ·ï¸",
    "id": 36,
    "image": "https://www.jp-api.com/images/tphoto_573624_0_b.png",
    "lat": 34.97486132000441,
    "lng": 139.0718819681838,
    "name": "ã‚¨ãƒƒã‚°ãƒ¯ãƒƒãƒ•ãƒ«ã€€ãƒ€ã‚¤ã‚«ãƒƒãƒˆã‚­ãƒ¼ãƒ›ãƒ«ãƒ€ãƒ¼",
    "region": "å…¶ä»–",
    "search_location": "é¦™æ¸¯"
  },
  {
    "category": "tag",
    "emoji": "ğŸ·ï¸",
    "id": 37,
    "image": "https://www.jp-api.com/images/tphoto_572698_0_b.png",
    "lat": 38.327974343076875,
    "lng": 140.92483685758657,
    "name": "ã­ã¶ãŸç¥­ã€€ãƒ€ã‚¤ã‚«ãƒƒãƒˆã‚­ãƒ¼ãƒ›ãƒ«ãƒ€ãƒ¼",
    "region": "æ±åŒ—",
    "search_location": "é’æ£®"
  },
  {
    "category": "plush",
    "emoji": "ğŸ§¸",
    "id": 38,
    "image": "https://www.jp-api.com/images/tphoto_570131_0_b.png",
    "lat": 38.32068819387569,
    "lng": 140.86383429848226,
    "name": "ç§‹ç”°çŠ¬ã€€ã¬ã„ãã‚‹ã¿ã‚­ãƒ¼ãƒã‚§ãƒ¼ãƒ³",
    "region": "æ±åŒ—",
    "search_location": "ç§‹ç”°"
  },
  {
    "category": "tag",
    "emoji": "ğŸ·ï¸",
    "id": 39,
    "image": "https://www.jp-api.com/images/tphoto_569503_0_b.png",
    "lat": 34.95144939331689,
    "lng": 138.9889792758176,
    "name": "ã‚µãƒ¼ãƒ•ã‚£ãƒ³ã€€ãƒ€ã‚¤ã‚«ãƒƒãƒˆã‚­ãƒ¼ãƒ›ãƒ«ãƒ€ãƒ¼",
    "region": "å…¶ä»–",
    "search_location": "å®®å´"
  },
  {
    "category": "tag",
    "emoji": "ğŸ·ï¸",
    "id": 40,
    "image": "https://www.jp-api.com/images/tphoto_569459_0_b.png",
    "lat": 35.02405651208246,
    "lng": 139.01479089063625,
    "name": "ã«ã‚ã‹ã€€ãƒ€ã‚¤ã‚«ãƒƒãƒˆã‚­ãƒ¼ãƒ›ãƒ«ãƒ€ãƒ¼",
    "region": "å…¶ä»–",
    "search_location": "ç¦å²¡"
  },
  {
    "category": "plush",
    "emoji": "ğŸ§¸",
    "id": 41,
    "image": "https://www.jp-api.com/images/tphoto_569457_0_b.png",
    "lat": 35.028918242250214,
    "lng": 139.0579000454992,
    "name": "ã»ãŸã‚‹ã„ã‹ã€€ã¬ã„ãã‚‹ã¿ã‚­ãƒ¼ãƒã‚§ãƒ¼ãƒ³",
    "region": "å…¶ä»–",
    "search_location": "å¯Œå±±"
  },
  {
    "category": "plush",
    "emoji": "ğŸ§¸",
    "id": 42,
    "image": "https://www.jp-api.com/images/tphoto_569425_0_b.png",
    "lat": 35.052344743162294,
    "lng": 139.0240225242984,
    "name": "ãƒãƒ³ã‚´ãƒ¼ã€€ã¬ã„ãã‚‹ã¿ã‚­ãƒ¼ãƒã‚§ãƒ¼ãƒ³",
    "region": "å…¶ä»–",
    "search_location": "å®®å´"
  },
  {
    "category": "tag",
    "emoji": "ğŸ·ï¸",
    "id": 43,
    "image": "https://www.jp-api.com/images/tphoto_569286_0_b.png",
    "lat": 34.40760254111964,
    "lng": 132.43584585684434,
    "name": "æ¡ƒã‹ã‚‰ç”Ÿã¾ã‚ŒãŸæ¡ƒå¤ªéƒã€€ãƒ€ã‚¤ã‚«ãƒƒãƒˆã‚­ãƒ¼ãƒ›ãƒ«ãƒ€ãƒ¼",
    "region": "ä¸­åœ‹",
    "search_location": "å²¡å±±"
  },
  {
    "category": "socks",
    "emoji": "ğŸ§¦",
    "id": 44,
    "image": "https://www.jp-api.com/images/tphoto_569082_0_b.png",
    "lat": 34.6827709740964,
    "lng": 135.80436201744342,
    "name": "å®®å³¶ã®é¹¿ã€€ã‚­ãƒ£ãƒ©ãƒƒãƒˆã‚½ãƒƒã‚¯ã‚¹",
    "region": "è¿‘ç•¿",
    "search_location": "åºƒå³¶"
  },
  {
    "category": "plush",
    "emoji": "ğŸ§¸",
    "id": 45,
    "image": "https://www.jp-api.com/images/tphoto_569063_0_b.png",
    "lat": 35.54772348270544,
    "lng": 139.78210127334637,
    "name": "ãƒ‘ã‚¤ãƒ­ãƒƒãƒˆã€€ã¬ã„ãã‚‹ã¿ã‚­ãƒ¼ãƒã‚§ãƒ¼ãƒ³",
    "region": "å…¶ä»–",
    "search_location": "ç©ºæ¸¯"
  },
  {
    "category": "tag",
    "emoji": "ğŸ·ï¸",
    "id": 46,
    "image": "https://www.jp-api.com/images/tphoto_569061_0_b.png",
    "lat": 41.76752023133917,
    "lng": 140.7288372478707,
    "name": "å‡½é¤¨ã®å¤œæ™¯ã€€ãƒ€ã‚¤ã‚«ãƒƒãƒˆã‚­ãƒ¼ãƒ›ãƒ«ãƒ€ãƒ¼",
    "region": "åŒ—æµ·é“",
    "search_location": "å‡½é¤¨"
  },
  {
    "category": "tag",
    "emoji": "ğŸ·ï¸",
    "id": 47,
    "image": "https://www.jp-api.com/images/tphoto_568895_0_b.png",
    "lat": 35.01233073864011,
    "lng": 135.76953307043308,
    "name": "ãƒ‹ãƒ‡ãƒƒã‚¯äº¬éƒ½ã‚¿ãƒ¯ãƒ¼ã€€ãƒ€ã‚¤ã‚«ãƒƒãƒˆã‚­ãƒ¼ãƒ›ãƒ«ãƒ€ãƒ¼",
    "region": "è¿‘ç•¿",
    "search_location": "äº¬éƒ½"
  },
  {
    "category": "tag",
    "emoji": "ğŸ·ï¸",
    "id": 48,
    "image": "https://www.jp-api.com/images/tphoto_568894_0_b.png",
    "lat": 35.00647030437306,
    "lng": 139.0334915130576,
    "name": "ã‚¢ãƒãƒŸãƒã‚¯ãƒ­ã‚¦ã‚µã‚®ã€€ãƒ€ã‚¤ã‚«ãƒƒãƒˆã‚­ãƒ¼ãƒ›ãƒ«ãƒ€ãƒ¼",
    "region": "å…¶ä»–",
    "search_location": "å¥„ç¾"
  },
  {
    "category": "socks",
    "emoji": "ğŸ§¦",
    "id": 49,
    "image": "https://www.jp-api.com/images/tphoto_568776_0_b.png",
    "lat": 43.004785782676194,
    "lng": 141.33647172163478,
    "name": "å°¾é“ãƒ©ãƒ¼ãƒ¡ãƒ³ã€€ã‚­ãƒ£ãƒ©ãƒƒãƒˆã‚½ãƒƒã‚¯ã‚¹",
    "region": "åŒ—æµ·é“",
    "search_location": "å°¾é“"
  },
  {
    "category": "socks",
    "emoji": "ğŸ§¦",
    "id": 50,
    "image": "https://www.jp-api.com/images/tphoto_567909_0_b.png",
    "lat": 35.66285076906682,
    "lng": 139.7241149874498,
    "name": "è½èŠ±ç”Ÿã€€ã‚­ãƒ£ãƒ©ãƒƒãƒˆã‚½ãƒƒã‚¯ã‚¹",
    "region": "é—œæ±",
    "search_location": "åƒè‘‰"
  },
  {
    "category": "socks",
    "emoji": "ğŸ§¦",
    "id": 51,
    "image": "https://www.jp-api.com/images/tphoto_567866_0_b.png",
    "lat": 38.22991297622824,
    "lng": 140.89692484330538,
    "name": "ç±³æ²¢ç‰›ã€€ã‚­ãƒ£ãƒ©ãƒƒãƒˆã‚½ãƒƒã‚¯ã‚¹",
    "region": "æ±åŒ—",
    "search_location": "å±±å½¢"
  },
  {
    "category": "plush",
    "emoji": "ğŸ§¸",
    "id": 52,
    "image": "https://www.jp-api.com/images/tphoto_567761_0_b.png",
    "lat": 34.92997247047345,
    "lng": 139.0552073719853,
    "name": "ã•ã‚‹ã¼ã¼ã€€ã¬ã„ãã‚‹ã¿ã‚­ãƒ¼ãƒã‚§ãƒ¼ãƒ³",
    "region": "å…¶ä»–",
    "search_location": "é£›é©’"
  },
  {
    "category": "tag",
    "emoji": "ğŸ·ï¸",
    "id": 53,
    "image": "https://www.jp-api.com/images/tphoto_567760_0_b.png",
    "lat": 34.93809277019506,
    "lng": 138.9417166117445,
    "name": "ç¸çµã³ã€€ãƒ€ã‚¤ã‚«ãƒƒãƒˆã‚­ãƒ¼ãƒ›ãƒ«ãƒ€ãƒ¼",
    "region": "å…¶ä»–",
    "search_location": "å³¶æ ¹"
  },
  {
    "category": "socks",
    "emoji": "ğŸ§¦",
    "id": 54,
    "image": "https://www.jp-api.com/images/tphoto_567689_0_b.png",
    "lat": 35.66610974992076,
    "lng": 139.71624745644567,
    "name": "ä¸­è¯è¡—ã€€ã‚­ãƒ£ãƒ©ãƒƒãƒˆã‚½ãƒƒã‚¯ã‚¹",
    "region": "é—œæ±",
    "search_location": "ç¥æˆ¶"
  },
  {
    "category": "tag",
    "emoji": "ğŸ·ï¸",
    "id": 55,
    "image": "https://www.jp-api.com/images/tphoto_567676_0_b.png",
    "lat": 34.97016707525717,
    "lng": 138.95162302317343,
    "name": "ã ã ã¡ã‚ƒè±†ã€€ãƒ€ã‚¤ã‚«ãƒƒãƒˆã‚­ãƒ¼ãƒ›ãƒ«ãƒ€ãƒ¼",
    "region": "å…¶ä»–",
    "search_location": "å±±å½¢"
  },
  {
    "category": "socks",
    "emoji": "ğŸ§¦",
    "id": 56,
    "image": "https://www.jp-api.com/images/tphoto_567675_0_b.png",
    "lat": 34.667033151178934,
    "lng": 135.53102492801307,
    "name": "ã¿ã‹ã‚“ã€€ã‚­ãƒ£ãƒ©ãƒƒãƒˆã‚½ãƒƒã‚¯ã‚¹",
    "region": "è¿‘ç•¿",
    "search_location": "éœå²¡"
  },
  {
    "category": "socks",
    "emoji": "ğŸ§¦",
    "id": 57,
    "image": "https://www.jp-api.com/images/tphoto_567659_0_b.png",
    "lat": 34.939212167732464,
    "lng": 139.05613174413492,
    "name": "ã•ã¤ã¾ã„ã‚‚ã€€ã‚­ãƒ£ãƒ©ãƒƒãƒˆã‚½ãƒƒã‚¯ã‚¹",
    "region": "å…¶ä»–",
    "search_location": "åŸ¼ç‰"
  },
  {
    "category": "socks",
    "emoji": "ğŸ§¦",
    "id": 58,
    "image": "https://www.jp-api.com/images/tphoto_567658_0_b.png",
    "lat": 34.687724011031605,
    "lng": 135.5245281264015,
    "name": "å¤§é˜ªåŸã€€ã‚­ãƒ£ãƒ©ãƒƒãƒˆã‚½ãƒƒã‚¯ã‚¹",
    "region": "è¿‘ç•¿",
    "search_location": "å¤§é˜ª"
  },
  {
    "category": "socks",
    "emoji": "ğŸ§¦",
    "id": 59,
    "image": "https://www.jp-api.com/images/tphoto_567657_0_b.png",
    "lat": 35.155740484093,
    "lng": 136.9238207157535,
    "name": "ã†ãªãã€€ã‚­ãƒ£ãƒ©ãƒƒãƒˆã‚½ãƒƒã‚¯ã‚¹",
    "region": "ä¸­éƒ¨",
    "search_location": "éœå²¡"
  },
  {
    "category": "socks",
    "emoji": "ğŸ§¦",
    "id": 60,
    "image": "https://www.jp-api.com/images/tphoto_567656_0_b.png",
    "lat": 35.616672129223446,
    "lng": 139.7641150982678,
    "name": "æ±äº¬ã‚¿ãƒ¯ãƒ¼ã€€ã‚­ãƒ£ãƒ©ãƒƒãƒˆã‚½ãƒƒã‚¯ã‚¹",
    "region": "é—œæ±",
    "search_location": "æ±äº¬"
  },
  {
    "category": "tag",
    "emoji": "ğŸ·ï¸",
    "id": 61,
    "image": "https://www.jp-api.com/images/tphoto_567566_0_b.png",
    "lat": 35.16956399989985,
    "lng": 136.8588798646216,
    "name": "ãŠèŒ¶ã€€ãƒ€ã‚¤ã‚«ãƒƒãƒˆã‚­ãƒ¼ãƒ›ãƒ«ãƒ€ãƒ¼",
    "region": "ä¸­éƒ¨",
    "search_location": "éœå²¡"
  },
  {
    "category": "plush",
    "emoji": "ğŸ§¸",
    "id": 62,
    "image": "https://www.jp-api.com/images/tphoto_567564_0_b.png",
    "lat": 34.3408890413062,
    "lng": 132.48792226860817,
    "name": "ãµãã€€ã¬ã„ãã‚‹ã¿ã‚­ãƒ¼ãƒã‚§ãƒ¼ãƒ³",
    "region": "ä¸­åœ‹",
    "search_location": "å±±å£"
  },
  {
    "category": "plush",
    "emoji": "ğŸ§¸",
    "id": 63,
    "image": "https://www.jp-api.com/images/tphoto_567563_0_b.png",
    "lat": 34.97094635365612,
    "lng": 139.00928129029808,
    "name": "ã•ã¤ã¾ã„ã‚‚ã€€ã¬ã„ãã‚‹ã¿ã‚­ãƒ¼ãƒã‚§ãƒ¼ãƒ³",
    "region": "å…¶ä»–",
    "search_location": "åŸ¼ç‰"
  },
  {
    "category": "plush",
    "emoji": "ğŸ§¸",
    "id": 64,
    "image": "https://www.jp-api.com/images/tphoto_567562_0_b.png",
    "lat": 35.70975950741505,
    "lng": 139.79438246124232,
    "name": "é›·é–€ã€€ã¬ã„ãã‚‹ã¿ã‚­ãƒ¼ãƒã‚§ãƒ¼ãƒ³",
    "region": "é—œæ±",
    "search_location": "é›·é–€"
  },
  {
    "category": "tag",
    "emoji": "ğŸ·ï¸",
    "id": 65,
    "image": "https://www.jp-api.com/images/tphoto_567561_0_b.png",
    "lat": 35.0433171300163,
    "lng": 138.97438400702677,
    "name": "ã‚³ã‚¦ãƒãƒˆãƒªã€€ãƒ€ã‚¤ã‚«ãƒƒãƒˆã‚­ãƒ¼ãƒ›ãƒ«ãƒ€ãƒ¼",
    "region": "å…¶ä»–",
    "search_location": "å…µåº«"
  },
  {
    "category": "plush",
    "emoji": "ğŸ§¸",
    "id": 66,
    "image": "https://www.jp-api.com/images/tphoto_567538_0_b.png",
    "lat": 34.99661031964899,
    "lng": 139.0244755463849,
    "name": "ç¬¹ã‹ã¾ã€€ã¬ã„ãã‚‹ã¿ã‚­ãƒ¼ãƒã‚§ãƒ¼ãƒ³",
    "region": "å…¶ä»–",
    "search_location": "å®®åŸ"
  },
  {
    "category": "plush",
    "emoji": "ğŸ§¸",
    "id": 67,
    "image": "https://www.jp-api.com/images/tphoto_567530_0_b.png",
    "lat": 35.02904229298396,
    "lng": 138.96295997293868,
    "name": "ã¶ã©ã†ã€€ã¬ã„ãã‚‹ã¿ã‚­ãƒ¼ãƒã‚§ãƒ¼ãƒ³",
    "region": "å…¶ä»–",
    "search_location": "å±±æ¢¨"
  },
  {
    "category": "tag",
    "emoji": "ğŸ·ï¸",
    "id": 68,
    "image": "https://www.jp-api.com/images/tphoto_567529_0_b.png",
    "lat": 35.037259671388654,
    "lng": 139.0735911584958,
    "name": "èŠ±ç¬ ã¾ã¤ã‚Šã€€ãƒ€ã‚¤ã‚«ãƒƒãƒˆã‚­ãƒ¼ãƒ›ãƒ«ãƒ€ãƒ¼",
    "region": "å…¶ä»–",
    "search_location": "å±±å½¢"
  },
  {
    "category": "tag",
    "emoji": "ğŸ·ï¸",
    "id": 69,
    "image": "https://www.jp-api.com/images/tphoto_567488_0_b.png",
    "lat": 34.41846340001746,
    "lng": 132.51361735464067,
    "name": "ã‚‚ã¿ã˜é¥…é ­ã€€ãƒ€ã‚¤ã‚«ãƒƒãƒˆã‚­ãƒ¼ãƒ›ãƒ«ãƒ€ãƒ¼",
    "region": "ä¸­åœ‹",
    "search_location": "åºƒå³¶"
  },
  {
    "category": "tag",
    "emoji": "ğŸ·ï¸",
    "id": 70,
    "image": "https://www.jp-api.com/images/tphoto_567487_0_b.png",
    "lat": 35.0585481361302,
    "lng": 139.07215539602507,
    "name": "ãŠå¥½ã¿ç„¼ã€€ãƒ€ã‚¤ã‚«ãƒƒãƒˆã‚­ãƒ¼ãƒ›ãƒ«ãƒ€ãƒ¼",
    "region": "å…¶ä»–",
    "search_location": "åºƒå³¶"
  },
  {
    "category": "tag",
    "emoji": "ğŸ·ï¸",
    "id": 71,
    "image": "https://www.jp-api.com/images/tphoto_567391_0_b.png",
    "lat": 34.94363776354658,
    "lng": 139.0162055955278,
    "name": "ãƒãƒ³ã‚´ãƒ¼ã€€ãƒ€ã‚¤ã‚«ãƒƒãƒˆã‚­ãƒ¼ãƒ›ãƒ«ãƒ€ãƒ¼",
    "region": "å…¶ä»–",
    "search_location": "å®®å´"
  },
  {
    "category": "tag",
    "emoji": "ğŸ·ï¸",
    "id": 72,
    "image": "https://www.jp-api.com/images/tphoto_567390_0_b.png",
    "lat": 34.96505884006695,
    "lng": 138.93568442278715,
    "name": "ã˜ã‚ƒã‚‚ã˜ã€€ãƒ€ã‚¤ã‚«ãƒƒãƒˆã‚­ãƒ¼ãƒ›ãƒ«ãƒ€ãƒ¼",
    "region": "å…¶ä»–",
    "search_location": "å®®å³¶"
  },
  {
    "category": "other",
    "emoji": "âœ¨",
    "id": 73,
    "image": "https://www.jp-api.com/images/tphoto_567389_0_b.png",
    "lat": 36.387944153533866,
    "lng": 139.06293050469168,
    "name": "ç¾¤é¦¬ã€€ç„¼ã¾ã‚“ã˜ã‚…ã†",
    "region": "é—œæ±",
    "search_location": "ç¾¤é¦¬"
  },
  {
    "category": "tag",
    "emoji": "ğŸ·ï¸",
    "id": 74,
    "image": "https://www.jp-api.com/images/tphoto_567300_0_b.png",
    "lat": 32.80677773562191,
    "lng": 130.70743338896432,
    "name": "ç†Šæœ¬åŸã€€ãƒ€ã‚¤ã‚«ãƒƒãƒˆã‚­ãƒ¼ãƒ›ãƒ«ãƒ€ãƒ¼",
    "region": "åŒ—æµ·é“",
    "search_location": "ç†Šæœ¬"
  },
  {
    "category": "other",
    "emoji": "âœ¨",
    "id": 75,
    "image": "https://www.jp-api.com/images/tphoto_566999_0_b.png",
    "lat": 34.7260560734237,
    "lng": 135.49643741182265,
    "name": "èˆå¦“ã€€ãƒãƒ¼ãƒ",
    "region": "è¿‘ç•¿",
    "search_location": "äº¬éƒ½"
  },
  {
    "category": "other",
    "emoji": "âœ¨",
    "id": 76,
    "image": "https://www.jp-api.com/images/tphoto_566998_0_b.png",
    "lat": 34.64482084709374,
    "lng": 135.50455552859015,
    "name": "èˆå¦“ã€€ãŒã¾å£",
    "region": "è¿‘ç•¿",
    "search_location": "äº¬éƒ½"
  },
  {
    "category": "other",
    "emoji": "âœ¨",
    "id": 77,
    "image": "https://www.jp-api.com/images/tphoto_565955_0_b.png",
    "lat": 34.66779768996962,
    "lng": 135.50033896239503,
    "name": "èˆå¦“ã€€ãƒ†ã‚£ãƒƒã‚·ãƒ¥ã‚±ãƒ¼ã‚¹",
    "region": "è¿‘ç•¿",
    "search_location": "äº¬éƒ½"
  },
  {
    "category": "tag",
    "emoji": "ğŸ·ï¸",
    "id": 78,
    "image": "https://www.jp-api.com/images/tphoto_563401_0_b.png",
    "lat": 34.946470591252584,
    "lng": 138.99476834157545,
    "name": "ã™ã„ã‹ã€€ãƒ€ã‚¤ã‚«ãƒƒãƒˆã‚­ãƒ¼ãƒ›ãƒ«ãƒ€ãƒ¼",
    "region": "å…¶ä»–",
    "search_location": "ç†Šæœ¬"
  },
  {
    "category": "socks",
    "emoji": "ğŸ§¦",
    "id": 79,
    "image": "https://www.jp-api.com/images/tphoto_563168_0_b.png",
    "lat": 35.22411324737328,
    "lng": 136.9152795256598,
    "name": "æŠ¹èŒ¶ã‚½ãƒ•ãƒˆã€€ã‚­ãƒ£ãƒ©ãƒƒãƒˆã‚½ãƒƒã‚¯ã‚¹",
    "region": "ä¸­éƒ¨",
    "search_location": "äº¬éƒ½"
  },
  {
    "category": "tag",
    "emoji": "ğŸ·ï¸",
    "id": 80,
    "image": "https://www.jp-api.com/images/tphoto_562624_0_b.png",
    "lat": 34.92987409340104,
    "lng": 138.93386302195537,
    "name": "ã‚»ãƒ³ãƒˆãƒãƒ¼ãƒ«å¤§è–å ‚è·¡ã€€ãƒ€ã‚¤ã‚«ãƒƒãƒˆã‚­ãƒ¼ãƒ›ãƒ«ãƒ€ãƒ¼",
    "region": "å…¶ä»–",
    "search_location": "æ¾³é–€"
  },
  {
    "category": "tag",
    "emoji": "ğŸ·ï¸",
    "id": 81,
    "image": "https://www.jp-api.com/images/tphoto_562623_0_b.png",
    "lat": 35.038803546647145,
    "lng": 139.00235110462648,
    "name": "ã‚¨ãƒƒã‚°ã‚¿ãƒ«ãƒˆã€€ãƒ€ã‚¤ã‚«ãƒƒãƒˆã‚­ãƒ¼ãƒ›ãƒ«ãƒ€ãƒ¼",
    "region": "å…¶ä»–",
    "search_location": "æ¾³é–€"
  },
  {
    "category": "plush",
    "emoji": "ğŸ§¸",
    "id": 82,
    "image": "https://www.jp-api.com/images/tphoto_562402_0_b.png",
    "lat": 26.15411228729681,
    "lng": 127.65188395570362,
    "name": "ã‚¸ãƒ³ãƒ™ã‚¨ã‚¶ãƒ¡ã€€ã¬ã„ãã‚‹ã¿ã‚­ãƒ¼ãƒã‚§ãƒ¼ãƒ³",
    "region": "æ²–ç¹©",
    "search_location": "æ²–ç¹©"
  },
  {
    "category": "plush",
    "emoji": "ğŸ§¸",
    "id": 83,
    "image": "https://www.jp-api.com/images/tphoto_562390_0_b.png",
    "lat": 22.329177077262973,
    "lng": 114.09911759462759,
    "name": "ãƒãƒ¯ã‚¤ã‚¢ãƒ³ã€€ã¬ã„ãã‚‹ã¿ã‚­ãƒ¼ãƒã‚§ãƒ¼ãƒ³",
    "region": "æµ·å¤–",
    "search_location": "ç¦å³¶"
  },
  {
    "category": "socks",
    "emoji": "ğŸ§¦",
    "id": 84,
    "image": "https://www.jp-api.com/images/tphoto_562341_0_b.png",
    "lat": 43.08480292164928,
    "lng": 141.3654577012597,
    "name": "ã¨ã‚“ã“ã¤ãƒ©ãƒ¼ãƒ¡ãƒ³ã€€ã‚­ãƒ£ãƒ©ãƒƒãƒˆã‚½ãƒƒã‚¯ã‚¹",
    "region": "åŒ—æµ·é“",
    "search_location": "ç¦å²¡"
  },
  {
    "category": "socks",
    "emoji": "ğŸ§¦",
    "id": 85,
    "image": "https://www.jp-api.com/images/tphoto_562267_0_b.png",
    "lat": 35.0622844137671,
    "lng": 139.0663847681521,
    "name": "ã¶ã©ã†ã€€ã‚­ãƒ£ãƒ©ãƒƒãƒˆã‚½ãƒƒã‚¯ã‚¹",
    "region": "å…¶ä»–",
    "search_location": "å±±æ¢¨"
  },
  {
    "category": "tag",
    "emoji": "ğŸ·ï¸",
    "id": 86,
    "image": "https://www.jp-api.com/images/tphoto_557657_0_b.png",
    "lat": 35.057540796138646,
    "lng": 138.9438203777472,
    "name": "æ·±è°·ã­ãã€€ãƒ€ã‚¤ã‚«ãƒƒãƒˆã‚­ãƒ¼ãƒ›ãƒ«ãƒ€ãƒ¼",
    "region": "å…¶ä»–",
    "search_location": "åŸ¼ç‰"
  },
  {
    "category": "tag",
    "emoji": "ğŸ·ï¸",
    "id": 87,
    "image": "https://www.jp-api.com/images/tphoto_557624_0_b.png",
    "lat": 38.33838879952629,
    "lng": 140.91487731952148,
    "name": "ãªã¾ã¯ã’ã€€ãƒ€ã‚¤ã‚«ãƒƒãƒˆã‚­ãƒ¼ãƒ›ãƒ«ãƒ€ãƒ¼",
    "region": "æ±åŒ—",
    "search_location": "ç§‹ç”°"
  },
  {
    "category": "tag",
    "emoji": "ğŸ·ï¸",
    "id": 88,
    "image": "https://www.jp-api.com/images/tphoto_557404_0_b.png",
    "lat": 35.049262585601554,
    "lng": 138.97934751796643,
    "name": "ã‚«ãƒ³ãƒ•ãƒ¼ã€€ãƒ€ã‚¤ã‚«ãƒƒãƒˆã‚­ãƒ¼ãƒ›ãƒ«ãƒ€ãƒ¼",
    "region": "å…¶ä»–",
    "search_location": "æ©«æ¿±"
  },
  {
    "category": "tag",
    "emoji": "ğŸ·ï¸",
    "id": 89,
    "image": "https://www.jp-api.com/images/tphoto_557403_0_b.png",
    "lat": 34.9263549109724,
    "lng": 138.9253651607064,
    "name": "ã•ã£ã½ã‚ãƒ†ãƒ¬ãƒ“å¡”ã€€ãƒ€ã‚¤ã‚«ãƒƒãƒˆã‚­ãƒ¼ãƒ›ãƒ«ãƒ€ãƒ¼",
    "region": "å…¶ä»–",
    "search_location": "æœ­å¹Œ"
  },
  {
    "category": "tag",
    "emoji": "ğŸ·ï¸",
    "id": 90,
    "image": "https://www.jp-api.com/images/tphoto_557402_0_b.png",
    "lat": 34.97891784935392,
    "lng": 138.97971277112507,
    "name": "ãƒˆã‚­ã€€ãƒ€ã‚¤ã‚«ãƒƒãƒˆã‚­ãƒ¼ãƒ›ãƒ«ãƒ€ãƒ¼",
    "region": "å…¶ä»–",
    "search_location": "æ–°æ½Ÿ"
  },
  {
    "category": "tag",
    "emoji": "ğŸ·ï¸",
    "id": 91,
    "image": "https://www.jp-api.com/images/tphoto_557401_0_b.png",
    "lat": 35.6733809821134,
    "lng": 139.71146984224987,
    "name": "é»’ãŸã¾ã”ã€€ãƒ€ã‚¤ã‚«ãƒƒãƒˆã‚­ãƒ¼ãƒ›ãƒ«ãƒ€ãƒ¼",
    "region": "é—œæ±",
    "search_location": "å¤§æ¶Œè°·"
  },
  {
    "category": "socks",
    "emoji": "ğŸ§¦",
    "id": 92,
    "image": "https://www.jp-api.com/images/tphoto_556363_0_b.png",
    "lat": 43.05876827877476,
    "lng": 141.42079287322568,
    "name": "ã‚·ãƒã‚¨ãƒŠã‚¬ã€€ã‚­ãƒ£ãƒ©ãƒƒãƒˆã‚½ãƒƒã‚¯ã‚¹",
    "region": "åŒ—æµ·é“",
    "search_location": "åŒ—æµ·é“"
  },
  {
    "category": "tag",
    "emoji": "ğŸ·ï¸",
    "id": 93,
    "image": "https://www.jp-api.com/images/tphoto_556362_0_b.png",
    "lat": 36.6248363565297,
    "lng": 138.59507802085713,
    "name": "è‰æ´¥æ¸©æ³‰ã€€ãƒ€ã‚¤ã‚«ãƒƒãƒˆã‚­ãƒ¼ãƒ›ãƒ«ãƒ€ãƒ¼",
    "region": "é—œæ±",
    "search_location": "ç¾¤é¦¬"
  },
  {
    "category": "socks",
    "emoji": "ğŸ§¦",
    "id": 94,
    "image": "https://www.jp-api.com/images/tphoto_555613_0_b.png",
    "lat": 34.63867506283748,
    "lng": 135.5601277621132,
    "name": "ã¿ã‹ã‚“ã€€ã‚­ãƒ£ãƒ©ãƒƒãƒˆã‚½ãƒƒã‚¯ã‚¹",
    "region": "è¿‘ç•¿",
    "search_location": "å’Œæ­Œå±±"
  },
  {
    "category": "socks",
    "emoji": "ğŸ§¦",
    "id": 95,
    "image": "https://www.jp-api.com/images/tphoto_555612_0_b.png",
    "lat": 34.959308038069246,
    "lng": 139.04540401363872,
    "name": "è—¤ã®èŠ±ã€€ã‚­ãƒ£ãƒ©ãƒƒãƒˆã‚½ãƒƒã‚¯ã‚¹",
    "region": "å…¶ä»–",
    "search_location": "è¶³åˆ©"
  },
  {
    "category": "socks",
    "emoji": "ğŸ§¦",
    "id": 96,
    "image": "https://www.jp-api.com/images/tphoto_555267_0_b.png",
    "lat": 35.548625530807904,
    "lng": 139.77886959390835,
    "name": "ãƒ‘ã‚¤ãƒ­ãƒƒãƒˆã€€ã‚­ãƒ£ãƒ©ãƒƒãƒˆã‚½ãƒƒã‚¯ã‚¹",
    "region": "å…¶ä»–",
    "search_location": "ç©ºæ¸¯"
  },
  {
    "category": "socks",
    "emoji": "ğŸ§¦",
    "id": 97,
    "image": "https://www.jp-api.com/images/tphoto_555197_0_b.png",
    "lat": 35.03986898678489,
    "lng": 139.0493032970951,
    "name": "ãƒãƒ«ãƒ¼ãƒ³ã€€ã‚­ãƒ£ãƒ©ãƒƒãƒˆã‚½ãƒƒã‚¯ã‚¹",
    "region": "å…¶ä»–",
    "search_location": "ä½è³€"
  },
  {
    "category": "socks",
    "emoji": "ğŸ§¦",
    "id": 98,
    "image": "https://www.jp-api.com/images/tphoto_555158_0_b.png",
    "lat": 34.931345764682156,
    "lng": 139.0267632191443,
    "name": "ä¿¡æ¥½ãŸã¬ãã€€ã‚­ãƒ£ãƒ©ãƒƒãƒˆã‚½ãƒƒã‚¯ã‚¹",
    "region": "å…¶ä»–",
    "search_location": "æ»‹è³€"
  },
  {
    "category": "socks",
    "emoji": "ğŸ§¦",
    "id": 99,
    "image": "https://www.jp-api.com/images/tphoto_555157_0_b.png",
    "lat": 34.43674232276796,
    "lng": 132.50496355014667,
    "name": "ã„ãªã°ã®ç™½ã†ã•ãã€€ã‚­ãƒ£ãƒ©ãƒƒãƒˆã‚½ãƒƒã‚¯ã‚¹",
    "region": "ä¸­åœ‹",
    "search_location": "å±±é™°"
  },
  {
    "category": "socks",
    "emoji": "ğŸ§¦",
    "id": 100,
    "image": "https://www.jp-api.com/images/tphoto_555156_0_b.png",
    "lat": 38.31427739408202,
    "lng": 140.89360413493904,
    "name": "èµ¤ã¹ã“ã€€ã‚­ãƒ£ãƒ©ãƒƒãƒˆã‚½ãƒƒã‚¯ã‚¹",
    "region": "æ±åŒ—",
    "search_location": "ç¦å³¶"
  },
  {
    "category": "socks",
    "emoji": "ğŸ§¦",
    "id": 101,
    "image": "https://www.jp-api.com/images/tphoto_555116_0_b.png",
    "lat": 35.16024445165796,
    "lng": 136.93137506439734,
    "name": "å°å€‰ãƒˆãƒ¼ã‚¹ãƒˆã€€ã‚­ãƒ£ãƒ©ãƒƒãƒˆã‚½ãƒƒã‚¯ã‚¹",
    "region": "ä¸­éƒ¨",
    "search_location": "åå¤å±‹"
  },
  {
    "category": "tag",
    "emoji": "ğŸ·ï¸",
    "id": 102,
    "image": "https://www.jp-api.com/images/tphoto_550256_0_b.png",
    "lat": 35.06130430941397,
    "lng": 139.0305498500079,
    "name": "ãã¾ã€€ãƒ€ã‚¤ã‚«ãƒƒãƒˆã‚­ãƒ¼ãƒ›ãƒ«ãƒ€ãƒ¼",
    "region": "å…¶ä»–",
    "search_location": "åŒ—æµ·é“"
  },
  {
    "category": "socks",
    "emoji": "ğŸ§¦",
    "id": 103,
    "image": "https://www.jp-api.com/images/tphoto_550255_0_b.png",
    "lat": 26.217131139300683,
    "lng": 127.69809371966556,
    "name": "ã‚·ãƒ¼ã‚µãƒ¼ã€€ã‚­ãƒ£ãƒ©ãƒƒãƒˆã‚½ãƒƒã‚¯ã‚¹",
    "region": "æ²–ç¹©",
    "search_location": "æ²–ç¹©"
  },
  {
    "category": "socks",
    "emoji": "ğŸ§¦",
    "id": 104,
    "image": "https://www.jp-api.com/images/tphoto_550254_0_b.png",
    "lat": 35.174159520787725,
    "lng": 136.95729993036437,
    "name": "ãŠèŒ¶ã€€ã‚­ãƒ£ãƒ©ãƒƒãƒˆã‚½ãƒƒã‚¯ã‚¹",
    "region": "ä¸­éƒ¨",
    "search_location": "éœå²¡"
  },
  {
    "category": "tag",
    "emoji": "ğŸ·ï¸",
    "id": 105,
    "image": "https://www.jp-api.com/images/tphoto_550253_0_b.png",
    "lat": 34.97870810366592,
    "lng": 138.97611775883757,
    "name": "æ¡ƒã€€ãƒ€ã‚¤ã‚«ãƒƒãƒˆã‚­ãƒ¼ãƒ›ãƒ«ãƒ€ãƒ¼",
    "region": "å…¶ä»–",
    "search_location": "ç¦å³¶"
  },
  {
    "category": "tag",
    "emoji": "ğŸ·ï¸",
    "id": 106,
    "image": "https://www.jp-api.com/images/tphoto_550252_0_b.png",
    "lat": 34.96762464379305,
    "lng": 135.7721738498352,
    "name": "ä¼è¦‹ç¨²è·ã€€ãƒ€ã‚¤ã‚«ãƒƒãƒˆã‚­ãƒ¼ãƒ›ãƒ«ãƒ€ãƒ¼",
    "region": "è¿‘ç•¿",
    "search_location": "äº¬éƒ½"
  },
  {
    "category": "tag",
    "emoji": "ğŸ·ï¸",
    "id": 107,
    "image": "https://www.jp-api.com/images/tphoto_550251_0_b.png",
    "lat": 35.731370807243735,
    "lng": 139.76588258078135,
    "name": "ä¸‰çŒ¿ã€€ãƒ€ã‚¤ã‚«ãƒƒãƒˆã‚­ãƒ¼ãƒ›ãƒ«ãƒ€ãƒ¼",
    "region": "é—œæ±",
    "search_location": "æ—¥å…‰"
  },
  {
    "category": "tag",
    "emoji": "ğŸ·ï¸",
    "id": 108,
    "image": "https://www.jp-api.com/images/tphoto_550250_0_b.png",
    "lat": 35.01736962963619,
    "lng": 138.48764582951233,
    "name": "æ¬¡éƒé•·ã€€ãƒ€ã‚¤ã‚«ãƒƒãƒˆã‚­ãƒ¼ãƒ›ãƒ«ãƒ€ãƒ¼",
    "region": "ä¸­éƒ¨",
    "search_location": "æ¸…æ°´"
  },
  {
    "category": "socks",
    "emoji": "ğŸ§¦",
    "id": 109,
    "image": "https://www.jp-api.com/images/tphoto_550249_0_b.png",
    "lat": 35.71112407025786,
    "lng": 139.7947423464824,
    "name": "é›·é–€ã€€ã‚­ãƒ£ãƒ©ãƒƒãƒˆã‚½ãƒƒã‚¯ã‚¹",
    "region": "é—œæ±",
    "search_location": "æ±äº¬"
  },
  {
    "category": "socks",
    "emoji": "ğŸ§¦",
    "id": 110,
    "image": "https://www.jp-api.com/images/tphoto_550248_0_b.png",
    "lat": 43.06005996072384,
    "lng": 141.33213422679876,
    "name": "åŒ—æµ·é“ã€€ã‚­ãƒ£ãƒ©ãƒƒãƒˆã‚½ãƒƒã‚¯ã‚¹",
    "region": "åŒ—æµ·é“",
    "search_location": "åŒ—æµ·é“"
  },
  {
    "category": "tag",
    "emoji": "ğŸ·ï¸",
    "id": 111,
    "image": "https://www.jp-api.com/images/tphoto_550247_0_b.png",
    "lat": 34.962738017922725,
    "lng": 139.0538025222127,
    "name": "è¾›å­ãƒ¬ãƒ³ã‚³ãƒ³ã€€ãƒ€ã‚¤ã‚«ãƒƒãƒˆã‚­ãƒ¼ãƒ›ãƒ«ãƒ€ãƒ¼",
    "region": "å…¶ä»–",
    "search_location": "ç†Šæœ¬"
  },
  {
    "category": "tag",
    "emoji": "ğŸ·ï¸",
    "id": 112,
    "image": "https://www.jp-api.com/images/tphoto_550246_0_b.png",
    "lat": 35.695416769554456,
    "lng": 139.6272621157216,
    "name": "æ±äº¬é§…ã€€ä¸¸ã®å†…é§…èˆã€€ãƒ€ã‚¤ã‚«ãƒƒãƒˆã‚­ãƒ¼ãƒ›ãƒ«ãƒ€ãƒ¼",
    "region": "é—œæ±",
    "search_location": "æ±äº¬"
  },
  {
    "category": "tag",
    "emoji": "ğŸ·ï¸",
    "id": 113,
    "image": "https://www.jp-api.com/images/tphoto_550245_0_b.png",
    "lat": 34.97913572548711,
    "lng": 139.01738290644727,
    "name": "æ¡œå³¶ã€€ãƒ€ã‚¤ã‚«ãƒƒãƒˆã‚­ãƒ¼ãƒ›ãƒ«ãƒ€ãƒ¼",
    "region": "å…¶ä»–",
    "search_location": "é¹¿å…å³¶"
  },
  {
    "category": "socks",
    "emoji": "ğŸ§¦",
    "id": 114,
    "image": "https://www.jp-api.com/images/tphoto_550244_0_b.png",
    "lat": 34.993674201847035,
    "lng": 139.0492112789254,
    "name": "å…¼å…­åœ’ã€€ã‚­ãƒ£ãƒ©ãƒƒãƒˆã‚½ãƒƒã‚¯ã‚¹",
    "region": "å…¶ä»–",
    "search_location": "çŸ³å·"
  },
  {
    "category": "socks",
    "emoji": "ğŸ§¦",
    "id": 115,
    "image": "https://www.jp-api.com/images/tphoto_550243_0_b.png",
    "lat": 22.278209904335675,
    "lng": 114.17477782897258,
    "name": "ãƒãƒ¯ã‚¤ã‚¢ãƒ³ã€€ã‚­ãƒ£ãƒ©ãƒƒãƒˆã‚½ãƒƒã‚¯ã‚¹",
    "region": "æµ·å¤–",
    "search_location": "ç¦å³¶"
  },
  {
    "category": "socks",
    "emoji": "ğŸ§¦",
    "id": 116,
    "image": "https://www.jp-api.com/images/tphoto_550242_0_b.png",
    "lat": 38.34157841737196,
    "lng": 140.8322819735339,
    "name": "ã‚ã‚“ã“ãã°ã€€ã‚­ãƒ£ãƒ©ãƒƒãƒˆã‚½ãƒƒã‚¯ã‚¹",
    "region": "æ±åŒ—",
    "search_location": "å²©æ‰‹"
  },
  {
    "category": "socks",
    "emoji": "ğŸ§¦",
    "id": 117,
    "image": "https://www.jp-api.com/images/tphoto_550241_0_b.png",
    "lat": 43.11667505850811,
    "lng": 141.4285665762187,
    "name": "ãƒ©ãƒ™ãƒ³ãƒ€ãƒ¼ã€€ã‚­ãƒ£ãƒ©ãƒƒãƒˆã‚½ãƒƒã‚¯ã‚¹",
    "region": "åŒ—æµ·é“",
    "search_location": "åŒ—æµ·é“"
  },
  {
    "category": "socks",
    "emoji": "ğŸ§¦",
    "id": 118,
    "image": "https://www.jp-api.com/images/tphoto_550240_0_b.png",
    "lat": 33.52471131855363,
    "lng": 130.34514583822173,
    "name": "ã‚«ã‚¹ãƒ†ãƒ©ã€€ã‚­ãƒ£ãƒ©ãƒƒãƒˆã‚½ãƒƒã‚¯ã‚¹",
    "region": "ä¹å·",
    "search_location": "é•·å´"
  },
  {
    "category": "socks",
    "emoji": "ğŸ§¦",
    "id": 119,
    "image": "https://www.jp-api.com/images/tphoto_550239_0_b.png",
    "lat": 35.03680162175613,
    "lng": 138.97222077656428,
    "name": "ã‚»ãƒ¼ãƒ©ãƒ¼ã€€ã‚­ãƒ£ãƒ©ãƒƒãƒˆã‚½ãƒƒã‚¯ã‚¹",
    "region": "å…¶ä»–",
    "search_location": "ç¥æˆ¶"
  },
  {
    "category": "socks",
    "emoji": "ğŸ§¦",
    "id": 120,
    "image": "https://www.jp-api.com/images/tphoto_550238_0_b.png",
    "lat": 33.53458845413301,
    "lng": 130.41888646295772,
    "name": "æ˜å¤ªå­ã€€ã‚­ãƒ£ãƒ©ãƒƒãƒˆã‚½ãƒƒã‚¯ã‚¹",
    "region": "ä¹å·",
    "search_location": "ç¦å²¡"
  },
  {
    "category": "socks",
    "emoji": "ğŸ§¦",
    "id": 121,
    "image": "https://www.jp-api.com/images/tphoto_550237_0_b.png",
    "lat": 35.73465796870928,
    "lng": 139.73617620713208,
    "name": "æ±äº¬ã‚¹ã‚«ã‚¤ãƒ„ãƒªãƒ¼ã€€ã‚­ãƒ£ãƒ©ãƒƒãƒˆã‚½ãƒƒã‚¯ã‚¹",
    "region": "é—œæ±",
    "search_location": "æ±äº¬"
  },
  {
    "category": "tag",
    "emoji": "ğŸ·ï¸",
    "id": 122,
    "image": "https://www.jp-api.com/images/tphoto_550236_0_b.png",
    "lat": 33.56501053112707,
    "lng": 130.3322085051711,
    "name": "é»’è±šã€€ãƒ€ã‚¤ã‚«ãƒƒãƒˆã‚­ãƒ¼ãƒ›ãƒ«ãƒ€ãƒ¼",
    "region": "ä¹å·",
    "search_location": "é¹¿å…å³¶"
  },
  {
    "category": "socks",
    "emoji": "ğŸ§¦",
    "id": 123,
    "image": "https://www.jp-api.com/images/tphoto_550235_0_b.png",
    "lat": 38.3036634911831,
    "lng": 140.8099018801887,
    "name": "ç§‹ç”°çŠ¬ã€€ã‚­ãƒ£ãƒ©ãƒƒãƒˆã‚½ãƒƒã‚¯ã‚¹",
    "region": "æ±åŒ—",
    "search_location": "ç§‹ç”°"
  },
  {
    "category": "socks",
    "emoji": "ğŸ§¦",
    "id": 124,
    "image": "https://www.jp-api.com/images/tphoto_550234_0_b.png",
    "lat": 35.0151699577114,
    "lng": 138.9435036137685,
    "name": "å¿è€…ã€€ã‚­ãƒ£ãƒ©ãƒƒãƒˆã‚½ãƒƒã‚¯ã‚¹",
    "region": "å…¶ä»–",
    "search_location": "æ»‹è³€"
  },
  {
    "category": "tag",
    "emoji": "ğŸ·ï¸",
    "id": 125,
    "image": "https://www.jp-api.com/images/tphoto_550233_0_b.png",
    "lat": 34.94254916755271,
    "lng": 139.0384039733829,
    "name": "ã„ã¡ã”ã€€ãƒ€ã‚¤ã‚«ãƒƒãƒˆã‚­ãƒ¼ãƒ›ãƒ«ãƒ€ãƒ¼",
    "region": "å…¶ä»–",
    "search_location": "éœå²¡"
  },
  {
    "category": "socks",
    "emoji": "ğŸ§¦",
    "id": 126,
    "image": "https://www.jp-api.com/images/tphoto_550232_0_b.png",
    "lat": 35.64422554875669,
    "lng": 139.7264242279452,
    "name": "ãƒ‘ãƒ³ãƒ€ã€€ã‚­ãƒ£ãƒ©ãƒƒãƒˆã‚½ãƒƒã‚¯ã‚¹",
    "region": "é—œæ±",
    "search_location": "æ±äº¬"
  },
  {
    "category": "tag",
    "emoji": "ğŸ·ï¸",
    "id": 127,
    "image": "https://www.jp-api.com/images/tphoto_550231_0_b.png",
    "lat": 43.12287911360866,
    "lng": 141.33291552504227,
    "name": "å°¾é“ãƒ©ãƒ¼ãƒ¡ãƒ³ã€€ãƒ€ã‚¤ã‚«ãƒƒãƒˆã‚­ãƒ¼ãƒ›ãƒ«ãƒ€ãƒ¼",
    "region": "åŒ—æµ·é“",
    "search_location": "å°¾é“"
  },
  {
    "category": "tag",
    "emoji": "ğŸ·ï¸",
    "id": 128,
    "image": "https://www.jp-api.com/images/tphoto_550230_0_b.png",
    "lat": 34.93321277605083,
    "lng": 139.02768399755394,
    "name": "ãƒãƒ¼ãƒˆã‚¿ãƒ¯ãƒ¼ã€€ãƒ€ã‚¤ã‚«ãƒƒãƒˆã‚­ãƒ¼ãƒ›ãƒ«ãƒ€ãƒ¼",
    "region": "å…¶ä»–",
    "search_location": "ç¥æˆ¶"
  },
  {
    "category": "tag",
    "emoji": "ğŸ·ï¸",
    "id": 129,
    "image": "https://www.jp-api.com/images/tphoto_550229_0_b.png",
    "lat": 34.95402035100399,
    "lng": 139.0306389739877,
    "name": "åƒå§«ã€€ãƒ€ã‚¤ã‚«ãƒƒãƒˆã‚­ãƒ¼ãƒ›ãƒ«ãƒ€ãƒ¼",
    "region": "å…¶ä»–",
    "search_location": "å§¬è·¯"
  },
  {
    "category": "socks",
    "emoji": "ğŸ§¦",
    "id": 130,
    "image": "https://www.jp-api.com/images/tphoto_550228_0_b.png",
    "lat": 35.032372393455375,
    "lng": 138.93933557560862,
    "name": "å½¦æ ¹åŸã€€ã‚­ãƒ£ãƒ©ãƒƒãƒˆã‚½ãƒƒã‚¯ã‚¹",
    "region": "å…¶ä»–",
    "search_location": "æ»‹è³€"
  },
  {
    "category": "plush",
    "emoji": "ğŸ§¸",
    "id": 131,
    "image": "https://www.jp-api.com/images/tphoto_550227_0_b.png",
    "lat": 32.80591150459736,
    "lng": 130.70346238973485,
    "name": "ç†Šæœ¬åŸã€€ã¬ã„ãã‚‹ã¿ã‚­ãƒ¼ãƒã‚§ãƒ¼ãƒ³",
    "region": "åŒ—æµ·é“",
    "search_location": "ç†Šæœ¬"
  },
  {
    "category": "tag",
    "emoji": "ğŸ·ï¸",
    "id": 132,
    "image": "https://www.jp-api.com/images/tphoto_550226_0_b.png",
    "lat": 35.026065918134286,
    "lng": 138.99379562132097,
    "name": "ç„¼ã¾ã‚“ã˜ã‚…ã†ã€€ãƒ€ã‚¤ã‚«ãƒƒãƒˆã‚­ãƒ¼ãƒ›ãƒ«ãƒ€ãƒ¼",
    "region": "å…¶ä»–",
    "search_location": "ç¾¤é¦¬"
  },
  {
    "category": "socks",
    "emoji": "ğŸ§¦",
    "id": 133,
    "image": "https://www.jp-api.com/images/tphoto_550225_0_b.png",
    "lat": 34.97619720933354,
    "lng": 138.9630017208184,
    "name": "ãƒãƒ³ã‚´ãƒ¼ã€€ã‚­ãƒ£ãƒ©ãƒƒãƒˆã‚½ãƒƒã‚¯ã‚¹",
    "region": "å…¶ä»–",
    "search_location": "å®®å´"
  },
  {
    "category": "socks",
    "emoji": "ğŸ§¦",
    "id": 134,
    "image": "https://www.jp-api.com/images/tphoto_550224_0_b.png",
    "lat": 34.7285881548574,
    "lng": 135.5600506815186,
    "name": "é‡‘é–£å¯ºã€€ã‚­ãƒ£ãƒ©ãƒƒãƒˆã‚½ãƒƒã‚¯ã‚¹",
    "region": "è¿‘ç•¿",
    "search_location": "é‡‘é–£å¯º"
  },
  {
    "category": "socks",
    "emoji": "ğŸ§¦",
    "id": 135,
    "image": "https://www.jp-api.com/images/tphoto_550223_0_b.png",
    "lat": 43.07660160969877,
    "lng": 141.37654442487423,
    "name": "ãƒ¡ãƒ­ãƒ³ã€€ã‚­ãƒ£ãƒ©ãƒƒãƒˆã‚½ãƒƒã‚¯ã‚¹",
    "region": "åŒ—æµ·é“",
    "search_location": "åŒ—æµ·é“"
  },
  {
    "category": "socks",
    "emoji": "ğŸ§¦",
    "id": 136,
    "image": "https://www.jp-api.com/images/tphoto_550222_0_b.png",
    "lat": 34.385332890927636,
    "lng": 134.02373932146492,
    "name": "ã•ã¬ãã†ã©ã‚“ã€€ã‚­ãƒ£ãƒ©ãƒƒãƒˆã‚½ãƒƒã‚¯ã‚¹",
    "region": "å››åœ‹",
    "search_location": "é¦™å·"
  },
  {
    "category": "tag",
    "emoji": "ğŸ·ï¸",
    "id": 137,
    "image": "https://www.jp-api.com/images/tphoto_550221_0_b.png",
    "lat": 34.63971324094103,
    "lng": 135.48750149902128,
    "name": "å¤§é˜ªã®ãŠã°ã¡ã‚ƒã‚“ã€€ãƒ€ã‚¤ã‚«ãƒƒãƒˆã‚­ãƒ¼ãƒ›ãƒ«ãƒ€ãƒ¼",
    "region": "è¿‘ç•¿",
    "search_location": "å¤§é˜ª"
  },
  {
    "category": "tag",
    "emoji": "ğŸ·ï¸",
    "id": 138,
    "image": "https://www.jp-api.com/images/tphoto_550220_0_b.png",
    "lat": 34.65069679957878,
    "lng": 135.50507655562924,
    "name": "é€šå¤©é–£ã€€ãƒ€ã‚¤ã‚«ãƒƒãƒˆã‚­ãƒ¼ãƒ›ãƒ«ãƒ€ãƒ¼",
    "region": "è¿‘ç•¿",
    "search_location": "å¤§é˜ª"
  },
  {
    "category": "tag",
    "emoji": "ğŸ·ï¸",
    "id": 139,
    "image": "https://www.jp-api.com/images/tphoto_550219_0_b.png",
    "lat": 35.00903723496195,
    "lng": 138.9583717758839,
    "name": "ãƒŸãƒƒã‚¯ã‚¹ã‚¸ãƒ¥ãƒ¼ã‚¹ã€€ãƒ€ã‚¤ã‚«ãƒƒãƒˆã‚­ãƒ¼ãƒ›ãƒ«ãƒ€ãƒ¼",
    "region": "å…¶ä»–",
    "search_location": "å¤§é˜ª"
  },
  {
    "category": "tag",
    "emoji": "ğŸ·ï¸",
    "id": 140,
    "image": "https://www.jp-api.com/images/tphoto_550218_0_b.png",
    "lat": 35.246447679000866,
    "lng": 136.8336688258969,
    "name": "ã†ãªãã€€ãƒ€ã‚¤ã‚«ãƒƒãƒˆã‚­ãƒ¼ãƒ›ãƒ«ãƒ€ãƒ¼",
    "region": "ä¸­éƒ¨",
    "search_location": "éœå²¡"
  },
  {
    "category": "tag",
    "emoji": "ğŸ·ï¸",
    "id": 141,
    "image": "https://www.jp-api.com/images/tphoto_550217_0_b.png",
    "lat": 35.31505177534209,
    "lng": 139.536199221025,
    "name": "å¤§ä»ã•ã¾ã€€ãƒ€ã‚¤ã‚«ãƒƒãƒˆã‚­ãƒ¼ãƒ›ãƒ«ãƒ€ãƒ¼",
    "region": "é—œæ±",
    "search_location": "å¥ˆè‰¯"
  },
  {
    "category": "tag",
    "emoji": "ğŸ·ï¸",
    "id": 142,
    "image": "https://www.jp-api.com/images/tphoto_550216_0_b.png",
    "lat": 33.623173266759004,
    "lng": 130.41786662073662,
    "name": "æ°·ã—ã‚ãã¾ã€€ãƒ€ã‚¤ã‚«ãƒƒãƒˆã‚­ãƒ¼ãƒ›ãƒ«ãƒ€ãƒ¼",
    "region": "ä¹å·",
    "search_location": "é¹¿å…å³¶"
  },
  {
    "category": "tag",
    "emoji": "ğŸ·ï¸",
    "id": 143,
    "image": "https://www.jp-api.com/images/tphoto_550215_0_b.png",
    "lat": 38.219681518742334,
    "lng": 140.89447479693615,
    "name": "ç™½è™éšŠã€€ãƒ€ã‚¤ã‚«ãƒƒãƒˆã‚­ãƒ¼ãƒ›ãƒ«ãƒ€ãƒ¼",
    "region": "æ±åŒ—",
    "search_location": "ç¦å³¶"
  },
  {
    "category": "tag",
    "emoji": "ğŸ·ï¸",
    "id": 144,
    "image": "https://www.jp-api.com/images/tphoto_550214_0_b.png",
    "lat": 35.7023550531466,
    "lng": 139.62018674705737,
    "name": "æ±äº¬ã‚¿ãƒ¯ãƒ¼ã€€ãƒ€ã‚¤ã‚«ãƒƒãƒˆã‚­ãƒ¼ãƒ›ãƒ«ãƒ€ãƒ¼",
    "region": "é—œæ±",
    "search_location": "æ±äº¬"
  },
  {
    "category": "tag",
    "emoji": "ğŸ·ï¸",
    "id": 145,
    "image": "https://www.jp-api.com/images/tphoto_550213_0_b.png",
    "lat": 38.297165460917505,
    "lng": 140.9236638231687,
    "name": "ç±³æ²¢ç‰›ã€€ãƒ€ã‚¤ã‚«ãƒƒãƒˆã‚­ãƒ¼ãƒ›ãƒ«ãƒ€ãƒ¼",
    "region": "æ±åŒ—",
    "search_location": "å±±å½¢"
  },
  {
    "category": "tag",
    "emoji": "ğŸ·ï¸",
    "id": 146,
    "image": "https://www.jp-api.com/images/tphoto_550212_0_b.png",
    "lat": 43.068639270766326,
    "lng": 141.32619943850148,
    "name": "ã‚·ãƒã‚¨ãƒŠã‚¬ã€€ãƒ€ã‚¤ã‚«ãƒƒãƒˆã‚­ãƒ¼ãƒ›ãƒ«ãƒ€ãƒ¼",
    "region": "åŒ—æµ·é“",
    "search_location": "åŒ—æµ·é“"
  },
  {
    "category": "tag",
    "emoji": "ğŸ·ï¸",
    "id": 147,
    "image": "https://www.jp-api.com/images/tphoto_550211_0_b.png",
    "lat": 35.70561654436288,
    "lng": 139.7049549867211,
    "name": "å¯„æœ¨ç´°å·¥ã€€ãƒ€ã‚¤ã‚«ãƒƒãƒˆã‚­ãƒ¼ãƒ›ãƒ«ãƒ€ãƒ¼",
    "region": "é—œæ±",
    "search_location": "ç®±æ ¹"
  },
  {
    "category": "tag",
    "emoji": "ğŸ·ï¸",
    "id": 148,
    "image": "https://www.jp-api.com/images/tphoto_550210_0_b.png",
    "lat": 34.687339349436954,
    "lng": 135.5702927579234,
    "name": "ã¿ã‹ã‚“ã€€ãƒ€ã‚¤ã‚«ãƒƒãƒˆã‚­ãƒ¼ãƒ›ãƒ«ãƒ€ãƒ¼",
    "region": "è¿‘ç•¿",
    "search_location": "éœå²¡"
  },
  {
    "category": "socks",
    "emoji": "ğŸ§¦",
    "id": 149,
    "image": "https://www.jp-api.com/images/tphoto_550209_0_b.png",
    "lat": 35.31900109754386,
    "lng": 139.53630932803952,
    "name": "å¤§ä»ã•ã¾ã€€ã‚­ãƒ£ãƒ©ãƒƒãƒˆã‚½ãƒƒã‚¯ã‚¹",
    "region": "é—œæ±",
    "search_location": "éŒå€‰"
  },
  {
    "category": "socks",
    "emoji": "ğŸ§¦",
    "id": 150,
    "image": "https://www.jp-api.com/images/tphoto_550208_0_b.png",
    "lat": 26.214248250966456,
    "lng": 127.73235003716742,
    "name": "ã‚¸ãƒ³ãƒ™ã‚¨ã‚¶ãƒ¡ã€€ã‚­ãƒ£ãƒ©ãƒƒãƒˆã‚½ãƒƒã‚¯ã‚¹",
    "region": "æ²–ç¹©",
    "search_location": "æ²–ç¹©"
  },
  {
    "category": "plush",
    "emoji": "ğŸ§¸",
    "id": 151,
    "image": "https://www.jp-api.com/images/tphoto_550207_0_b.png",
    "lat": 35.05901900993298,
    "lng": 139.07482219839838,
    "name": "ã ã‚‹ã¾ã€€ã¬ã„ãã‚‹ã¿ã‚­ãƒ¼ãƒã‚§ãƒ¼ãƒ³",
    "region": "å…¶ä»–",
    "search_location": "ç¾¤é¦¬"
  },
  {
    "category": "plush",
    "emoji": "ğŸ§¸",
    "id": 152,
    "image": "https://www.jp-api.com/images/tphoto_550206_0_b.png",
    "lat": 38.268374498451365,
    "lng": 140.930552665622,
    "name": "ã‚Šã‚“ã”ã€€ã¬ã„ãã‚‹ã¿ã‚­ãƒ¼ãƒã‚§ãƒ¼ãƒ³",
    "region": "æ±åŒ—",
    "search_location": "ä¿¡å·"
  },
  {
    "category": "plush",
    "emoji": "ğŸ§¸",
    "id": 153,
    "image": "https://www.jp-api.com/images/tphoto_550205_0_b.png",
    "lat": 34.639594994768736,
    "lng": 135.54351629281481,
    "name": "ãŸã“ç„¼ã€€ã¬ã„ãã‚‹ã¿ã‚­ãƒ¼ãƒã‚§ãƒ¼ãƒ³",
    "region": "è¿‘ç•¿",
    "search_location": "å¤§é˜ª"
  },
  {
    "category": "plush",
    "emoji": "ğŸ§¸",
    "id": 154,
    "image": "https://www.jp-api.com/images/tphoto_550204_0_b.png",
    "lat": 35.002576975501015,
    "lng": 138.93960666262092,
    "name": "å½¦æ ¹åŸã€€ã¬ã„ãã‚‹ã¿ã‚­ãƒ¼ãƒã‚§ãƒ¼ãƒ³",
    "region": "å…¶ä»–",
    "search_location": "æ»‹è³€"
  },
  {
    "category": "plush",
    "emoji": "ğŸ§¸",
    "id": 155,
    "image": "https://www.jp-api.com/images/tphoto_550203_0_b.png",
    "lat": 34.65485594521868,
    "lng": 135.48673931499826,
    "name": "çµç¶æ¹–ã€€ã¬ã„ãã‚‹ã¿ã‚­ãƒ¼ãƒã‚§ãƒ¼ãƒ³",
    "region": "è¿‘ç•¿",
    "search_location": "æ»‹è³€"
  },
  {
    "category": "plush",
    "emoji": "ğŸ§¸",
    "id": 156,
    "image": "https://www.jp-api.com/images/tphoto_550202_0_b.png",
    "lat": 43.012867713724006,
    "lng": 141.29311123501873,
    "name": "åŒ—æµ·é“ã€€ã¬ã„ãã‚‹ã¿ã‚­ãƒ¼ãƒã‚§ãƒ¼ãƒ³",
    "region": "åŒ—æµ·é“",
    "search_location": "åŒ—æµ·é“"
  },
  {
    "category": "plush",
    "emoji": "ğŸ§¸",
    "id": 157,
    "image": "https://www.jp-api.com/images/tphoto_550201_0_b.png",
    "lat": 34.99481809703211,
    "lng": 138.9446150447053,
    "name": "ç¬¹å›£å­ã€€ã¬ã„ãã‚‹ã¿ã‚­ãƒ¼ãƒã‚§ãƒ¼ãƒ³",
    "region": "å…¶ä»–",
    "search_location": "æ–°æ½Ÿ"
  },
  {
    "category": "plush",
    "emoji": "ğŸ§¸",
    "id": 158,
    "image": "https://www.jp-api.com/images/tphoto_550200_0_b.png",
    "lat": 38.28062756925793,
    "lng": 140.87186388958096,
    "name": "èµ¤ã¹ã“ã€€ã¬ã„ãã‚‹ã¿ã‚­ãƒ¼ãƒã‚§ãƒ¼ãƒ³",
    "region": "æ±åŒ—",
    "search_location": "ç¦å³¶"
  },
  {
    "category": "plush",
    "emoji": "ğŸ§¸",
    "id": 159,
    "image": "https://www.jp-api.com/images/tphoto_550199_0_b.png",
    "lat": 34.750078702561375,
    "lng": 135.5193083997339,
    "name": "é‡‘é–£å¯ºã€€ã¬ã„ãã‚‹ã¿ã‚­ãƒ¼ãƒã‚§ãƒ¼ãƒ³",
    "region": "è¿‘ç•¿",
    "search_location": "é‡‘é–£å¯º"
  },
  {
    "category": "plush",
    "emoji": "ğŸ§¸",
    "id": 160,
    "image": "https://www.jp-api.com/images/tphoto_550198_0_b.png",
    "lat": 34.69730870784975,
    "lng": 135.56462085551368,
    "name": "çœŸç ã€€ã¬ã„ãã‚‹ã¿ã‚­ãƒ¼ãƒã‚§ãƒ¼ãƒ³",
    "region": "è¿‘ç•¿",
    "search_location": "ä¸‰é‡"
  },
  {
    "category": "plush",
    "emoji": "ğŸ§¸",
    "id": 161,
    "image": "https://www.jp-api.com/images/tphoto_550197_0_b.png",
    "lat": 35.65539524575791,
    "lng": 139.69187680157478,
    "name": "ãƒ‘ãƒ³ãƒ€ã€€ã¬ã„ãã‚‹ã¿ã‚­ãƒ¼ãƒã‚§ãƒ¼ãƒ³",
    "region": "é—œæ±",
    "search_location": "æ±äº¬"
  },
  {
    "category": "plush",
    "emoji": "ğŸ§¸",
    "id": 162,
    "image": "https://www.jp-api.com/images/tphoto_550196_0_b.png",
    "lat": 35.72168317844106,
    "lng": 139.63135656282435,
    "name": "ãƒ‘ãƒ³ãƒ€ã€€ã¬ã„ãã‚‹ã¿ã‚­ãƒ¼ãƒã‚§ãƒ¼ãƒ³",
    "region": "é—œæ±",
    "search_location": "å’Œæ­Œå±±"
  },
  {
    "category": "plush",
    "emoji": "ğŸ§¸",
    "id": 163,
    "image": "https://www.jp-api.com/images/tphoto_550195_0_b.png",
    "lat": 34.93013375777308,
    "lng": 139.02158356888364,
    "name": "æç«œã€€ã¬ã„ãã‚‹ã¿ã‚­ãƒ¼ãƒã‚§ãƒ¼ãƒ³",
    "region": "å…¶ä»–",
    "search_location": "ç¦äº•"
  },
  {
    "category": "tag",
    "emoji": "ğŸ·ï¸",
    "id": 164,
    "image": "https://www.jp-api.com/images/tphoto_550194_0_b.png",
    "lat": 34.985316814250794,
    "lng": 138.93372479981625,
    "name": "ã¶ã©ã†ã€€ãƒ€ã‚¤ã‚«ãƒƒãƒˆã‚­ãƒ¼ãƒ›ãƒ«ãƒ€ãƒ¼",
    "region": "å…¶ä»–",
    "search_location": "å±±æ¢¨"
  },
  {
    "category": "tag",
    "emoji": "ğŸ·ï¸",
    "id": 165,
    "image": "https://www.jp-api.com/images/tphoto_550193_0_b.png",
    "lat": 34.40270587773271,
    "lng": 132.52290440594757,
    "name": "ã„ãªã°ã®ç™½ã†ã•ãã€€ãƒ€ã‚¤ã‚«ãƒƒãƒˆã‚­ãƒ¼ãƒ›ãƒ«ãƒ€ãƒ¼",
    "region": "ä¸­åœ‹",
    "search_location": "å±±é™°"
  },
  {
    "category": "tag",
    "emoji": "ğŸ·ï¸",
    "id": 166,
    "image": "https://www.jp-api.com/images/tphoto_550192_0_b.png",
    "lat": 35.043878585808436,
    "lng": 138.92961365841356,
    "name": "ãŠã“ã˜ã‚‡ã€€ãƒ€ã‚¤ã‚«ãƒƒãƒˆã‚­ãƒ¼ãƒ›ãƒ«ãƒ€ãƒ¼",
    "region": "å…¶ä»–",
    "search_location": "ä¿¡å·"
  },
  {
    "category": "tag",
    "emoji": "ğŸ·ï¸",
    "id": 167,
    "image": "https://www.jp-api.com/images/tphoto_550191_0_b.png",
    "lat": 35.550641912751,
    "lng": 139.7792005295656,
    "name": "ãƒ‘ã‚¤ãƒ­ãƒƒãƒˆã€€ãƒ€ã‚¤ã‚«ãƒƒãƒˆã‚­ãƒ¼ãƒ›ãƒ«ãƒ€ãƒ¼",
    "region": "å…¶ä»–",
    "search_location": "ç©ºæ¸¯"
  },
  {
    "category": "tag",
    "emoji": "ğŸ·ï¸",
    "id": 168,
    "image": "https://www.jp-api.com/images/tphoto_550190_0_b.png",
    "lat": 22.329541827503313,
    "lng": 114.11067809030149,
    "name": "ãƒãƒ¯ã‚¤ã‚¢ãƒ³ã€€ãƒ€ã‚¤ã‚«ãƒƒãƒˆã‚­ãƒ¼ãƒ›ãƒ«ãƒ€ãƒ¼",
    "region": "æµ·å¤–",
    "search_location": "ç¦å³¶"
  },
  {
    "category": "tag",
    "emoji": "ğŸ·ï¸",
    "id": 169,
    "image": "https://www.jp-api.com/images/tphoto_550189_0_b.png",
    "lat": 26.19601722873872,
    "lng": 127.61666075699391,
    "name": "ã‚·ãƒ¼ã‚µãƒ¼ã€€ãƒ€ã‚¤ã‚«ãƒƒãƒˆã‚­ãƒ¼ãƒ›ãƒ«ãƒ€ãƒ¼",
    "region": "æ²–ç¹©",
    "search_location": "æ²–ç¹©"
  },
  {
    "category": "tag",
    "emoji": "ğŸ·ï¸",
    "id": 170,
    "image": "https://www.jp-api.com/images/tphoto_550188_0_b.png",
    "lat": 26.283968852315304,
    "lng": 127.73234185566353,
    "name": "ã‚¸ãƒ³ãƒ™ã‚¨ã‚¶ãƒ¡ã€€ãƒ€ã‚¤ã‚«ãƒƒãƒˆã‚­ãƒ¼ãƒ›ãƒ«ãƒ€ãƒ¼",
    "region": "æ²–ç¹©",
    "search_location": "æ²–ç¹©"
  },
  {
    "category": "tag",
    "emoji": "ğŸ·ï¸",
    "id": 171,
    "image": "https://www.jp-api.com/images/tphoto_550187_0_b.png",
    "lat": 34.3723091312616,
    "lng": 132.5072581836873,
    "name": "ãµãã€€ãƒ€ã‚¤ã‚«ãƒƒãƒˆã‚­ãƒ¼ãƒ›ãƒ«ãƒ€ãƒ¼",
    "region": "ä¸­åœ‹",
    "search_location": "å±±å£"
  },
  {
    "category": "tag",
    "emoji": "ğŸ·ï¸",
    "id": 172,
    "image": "https://www.jp-api.com/images/tphoto_550186_0_b.png",
    "lat": 34.950079180602344,
    "lng": 138.95324697154317,
    "name": "ç¬¹å›£å­ã€€ãƒ€ã‚¤ã‚«ãƒƒãƒˆã‚­ãƒ¼ãƒ›ãƒ«ãƒ€ãƒ¼",
    "region": "å…¶ä»–",
    "search_location": "æ–°æ½Ÿ"
  },
  {
    "category": "tag",
    "emoji": "ğŸ·ï¸",
    "id": 173,
    "image": "https://www.jp-api.com/images/tphoto_550185_0_b.png",
    "lat": 33.546241964351616,
    "lng": 130.42122776699046,
    "name": "æ˜å¤ªå­ã€€ãƒ€ã‚¤ã‚«ãƒƒãƒˆã‚­ãƒ¼ãƒ›ãƒ«ãƒ€ãƒ¼",
    "region": "ä¹å·",
    "search_location": "ç¦å²¡"
  },
  {
    "category": "tag",
    "emoji": "ğŸ·ï¸",
    "id": 174,
    "image": "https://www.jp-api.com/images/tphoto_550184_0_b.png",
    "lat": 35.05752158074682,
    "lng": 139.00057152436148,
    "name": "ãƒãƒ«ãƒ¼ãƒ³ã€€ãƒ€ã‚¤ã‚«ãƒƒãƒˆã‚­ãƒ¼ãƒ›ãƒ«ãƒ€ãƒ¼",
    "region": "å…¶ä»–",
    "search_location": "ä½è³€"
  },
  {
    "category": "tag",
    "emoji": "ğŸ·ï¸",
    "id": 175,
    "image": "https://www.jp-api.com/images/tphoto_550183_0_b.png",
    "lat": 35.01308575246485,
    "lng": 139.012205330133,
    "name": "ã•ã¤ã¾ã„ã‚‚ã€€ãƒ€ã‚¤ã‚«ãƒƒãƒˆã‚­ãƒ¼ãƒ›ãƒ«ãƒ€ãƒ¼",
    "region": "å…¶ä»–",
    "search_location": "åŸ¼ç‰"
  },
  {
    "category": "tag",
    "emoji": "ğŸ·ï¸",
    "id": 176,
    "image": "https://www.jp-api.com/images/tphoto_550182_0_b.png",
    "lat": 35.016336782310255,
    "lng": 138.93493649589786,
    "name": "æ¸©æ³‰ã¾ã‚“ã˜ã‚…ã†ã€€ãƒ€ã‚¤ã‚«ãƒƒãƒˆã‚­ãƒ¼ãƒ›ãƒ«ãƒ€ãƒ¼",
    "region": "å…¶ä»–",
    "search_location": "ç®±æ ¹"
  },
  {
    "category": "tag",
    "emoji": "ğŸ·ï¸",
    "id": 177,
    "image": "https://www.jp-api.com/images/tphoto_550181_0_b.png",
    "lat": 33.57221249590513,
    "lng": 130.39324717992028,
    "name": "ã‚«ã‚¹ãƒ†ãƒ©ã€€ãƒ€ã‚¤ã‚«ãƒƒãƒˆã‚­ãƒ¼ãƒ›ãƒ«ãƒ€ãƒ¼",
    "region": "ä¹å·",
    "search_location": "é•·å´"
  },
  {
    "category": "plush",
    "emoji": "ğŸ§¸",
    "id": 178,
    "image": "https://www.jp-api.com/images/tphoto_550179_0_b.png",
    "lat": 35.6189331758674,
    "lng": 139.63027571911303,
    "name": "æ±äº¬ã‚¹ã‚«ã‚¤ãƒ„ãƒªãƒ¼ã€€ã¬ã„ãã‚‹ã¿ã‚­ãƒ¼ãƒã‚§ãƒ¼ãƒ³",
    "region": "é—œæ±",
    "search_location": "æ±äº¬"
  },
  {
    "category": "tag",
    "emoji": "ğŸ·ï¸",
    "id": 179,
    "image": "https://www.jp-api.com/images/tphoto_550178_0_b.png",
    "lat": 34.45408556224768,
    "lng": 136.72332384949314,
    "name": "ä¼Šå‹¢ãˆã³ã€€ãƒ€ã‚¤ã‚«ãƒƒãƒˆã‚­ãƒ¼ãƒ›ãƒ«ãƒ€ãƒ¼",
    "region": "è¿‘ç•¿",
    "search_location": "ä¸‰é‡"
  },
  {
    "category": "tag",
    "emoji": "ğŸ·ï¸",
    "id": 180,
    "image": "https://www.jp-api.com/images/tphoto_550177_0_b.png",
    "lat": 38.30276980515199,
    "lng": 140.93878530216668,
    "name": "ç§‹ç”°çŠ¬ã€€ãƒ€ã‚¤ã‚«ãƒƒãƒˆã‚­ãƒ¼ãƒ›ãƒ«ãƒ€ãƒ¼",
    "region": "æ±åŒ—",
    "search_location": "ç§‹ç”°"
  },
  {
    "category": "tag",
    "emoji": "ğŸ·ï¸",
    "id": 181,
    "image": "https://www.jp-api.com/images/tphoto_550176_0_b.png",
    "lat": 38.21600261975504,
    "lng": 140.8185598397961,
    "name": "ã‚ã‚“ã“ãã°ã€€ãƒ€ã‚¤ã‚«ãƒƒãƒˆã‚­ãƒ¼ãƒ›ãƒ«ãƒ€ãƒ¼",
    "region": "æ±åŒ—",
    "search_location": "å²©æ‰‹"
  },
  {
    "category": "tag",
    "emoji": "ğŸ·ï¸",
    "id": 182,
    "image": "https://www.jp-api.com/images/tphoto_550163_0_b.png",
    "lat": 34.68579765976229,
    "lng": 135.80256648219392,
    "name": "é¹¿ã€€ãƒ€ã‚¤ã‚«ãƒƒãƒˆã‚­ãƒ¼ãƒ›ãƒ«ãƒ€ãƒ¼",
    "region": "è¿‘ç•¿",
    "search_location": "å¥ˆè‰¯"
  },
  {
    "category": "tag",
    "emoji": "ğŸ·ï¸",
    "id": 183,
    "image": "https://www.jp-api.com/images/tphoto_550162_0_b.png",
    "lat": 43.13169464178432,
    "lng": 141.36616970333594,
    "name": "ã¨ã‚“ã“ã¤ãƒ©ãƒ¼ãƒ¡ãƒ³ã€€ãƒ€ã‚¤ã‚«ãƒƒãƒˆã‚­ãƒ¼ãƒ›ãƒ«ãƒ€ãƒ¼",
    "region": "åŒ—æµ·é“",
    "search_location": "ç¦å²¡"
  },
  {
    "category": "tag",
    "emoji": "ğŸ·ï¸",
    "id": 184,
    "image": "https://www.jp-api.com/images/tphoto_550161_0_b.png",
    "lat": 35.31464266653759,
    "lng": 139.53687028190132,
    "name": "å¤§ä»ã•ã¾ã€€ãƒ€ã‚¤ã‚«ãƒƒãƒˆã‚­ãƒ¼ãƒ›ãƒ«ãƒ€ãƒ¼",
    "region": "é—œæ±",
    "search_location": "éŒå€‰"
  },
  {
    "category": "tag",
    "emoji": "ğŸ·ï¸",
    "id": 185,
    "image": "https://www.jp-api.com/images/tphoto_550160_0_b.png",
    "lat": 33.56447985080156,
    "lng": 130.37059433601743,
    "name": "ã‚ã¾ãŠã†ã€€ãƒ€ã‚¤ã‚«ãƒƒãƒˆã‚­ãƒ¼ãƒ›ãƒ«ãƒ€ãƒ¼",
    "region": "ä¹å·",
    "search_location": "ç¦å²¡"
  },
  {
    "category": "tag",
    "emoji": "ğŸ·ï¸",
    "id": 186,
    "image": "https://www.jp-api.com/images/tphoto_550159_0_b.png",
    "lat": 35.016590763011,
    "lng": 139.00988776603586,
    "name": "åˆæŒé€ ã‚Šã€€ãƒ€ã‚¤ã‚«ãƒƒãƒˆã‚­ãƒ¼ãƒ›ãƒ«ãƒ€ãƒ¼",
    "region": "å…¶ä»–",
    "search_location": "é£›é©’"
  },
  {
    "category": "socks",
    "emoji": "ğŸ§¦",
    "id": 187,
    "image": "https://www.jp-api.com/images/tphoto_550158_0_b.png",
    "lat": 34.42349285091079,
    "lng": 132.49668679607493,
    "name": "ãµãã€€ã‚­ãƒ£ãƒ©ãƒƒãƒˆã‚½ãƒƒã‚¯ã‚¹",
    "region": "ä¸­åœ‹",
    "search_location": "å±±å£"
  },
  {
    "category": "plush",
    "emoji": "ğŸ§¸",
    "id": 188,
    "image": "https://www.jp-api.com/images/tphoto_550157_0_b.png",
    "lat": 35.03693083352913,
    "lng": 138.99647294569314,
    "name": "ã‚»ãƒ¼ãƒ©ãƒ¼ã€€ã¬ã„ãã‚‹ã¿ã‚­ãƒ¼ãƒã‚§ãƒ¼ãƒ³",
    "region": "å…¶ä»–",
    "search_location": "ç¥æˆ¶"
  },
  {
    "category": "plush",
    "emoji": "ğŸ§¸",
    "id": 189,
    "image": "https://www.jp-api.com/images/tphoto_550156_0_b.png",
    "lat": 33.574435078875425,
    "lng": 130.40411332095476,
    "name": "ã‚«ã‚¹ãƒ†ãƒ©ã€€ã¬ã„ãã‚‹ã¿ã‚­ãƒ¼ãƒã‚§ãƒ¼ãƒ³",
    "region": "ä¹å·",
    "search_location": "é•·å´"
  },
  {
    "category": "plush",
    "emoji": "ğŸ§¸",
    "id": 190,
    "image": "https://www.jp-api.com/images/tphoto_550155_0_b.png",
    "lat": 33.55125159688835,
    "lng": 130.4177420852584,
    "name": "æ˜å¤ªå­ã€€ã¬ã„ãã‚‹ã¿ã‚­ãƒ¼ãƒã‚§ãƒ¼ãƒ³",
    "region": "ä¹å·",
    "search_location": "ç¦å²¡"
  },
  {
    "category": "plush",
    "emoji": "ğŸ§¸",
    "id": 191,
    "image": "https://www.jp-api.com/images/tphoto_550154_0_b.png",
    "lat": 35.00279411406875,
    "lng": 138.93479986840708,
    "name": "æ¡œå³¶ã€€ã¬ã„ãã‚‹ã¿ã‚­ãƒ¼ãƒã‚§ãƒ¼ãƒ³",
    "region": "å…¶ä»–",
    "search_location": "é¹¿å…å³¶"
  },
  {
    "category": "tag",
    "emoji": "ğŸ·ï¸",
    "id": 192,
    "image": "https://www.jp-api.com/images/tphoto_550153_0_b.png",
    "lat": 35.05551445759304,
    "lng": 139.01044006027283,
    "name": "è—¤ã®èŠ±ã€€ãƒ€ã‚¤ã‚«ãƒƒãƒˆã‚­ãƒ¼ãƒ›ãƒ«ãƒ€ãƒ¼",
    "region": "å…¶ä»–",
    "search_location": "è¶³åˆ©"
  },
  {
    "category": "tag",
    "emoji": "ğŸ·ï¸",
    "id": 193,
    "image": "https://www.jp-api.com/images/tphoto_550152_0_b.png",
    "lat": 34.631229174193514,
    "lng": 135.51390521649736,
    "name": "é‡‘é–£å¯ºã€€ãƒ€ã‚¤ã‚«ãƒƒãƒˆã‚­ãƒ¼ãƒ›ãƒ«ãƒ€ãƒ¼",
    "region": "è¿‘ç•¿",
    "search_location": "é‡‘é–£å¯º"
  },
  {
    "category": "tag",
    "emoji": "ğŸ·ï¸",
    "id": 194,
    "image": "https://www.jp-api.com/images/tphoto_550151_0_b.png",
    "lat": 43.08995655548255,
    "lng": 141.35305570076696,
    "name": "ãƒ¡ãƒ­ãƒ³ã€€ãƒ€ã‚¤ã‚«ãƒƒãƒˆã‚­ãƒ¼ãƒ›ãƒ«ãƒ€ãƒ¼",
    "region": "åŒ—æµ·é“",
    "search_location": "åŒ—æµ·é“"
  },
  {
    "category": "tag",
    "emoji": "ğŸ·ï¸",
    "id": 195,
    "image": "https://www.jp-api.com/images/tphoto_550150_0_b.png",
    "lat": 42.98736676485953,
    "lng": 141.3893308545377,
    "name": "ãƒ©ãƒ™ãƒ³ãƒ€ãƒ¼ã€€ãƒ€ã‚¤ã‚«ãƒƒãƒˆã‚­ãƒ¼ãƒ›ãƒ«ãƒ€ãƒ¼",
    "region": "åŒ—æµ·é“",
    "search_location": "åŒ—æµ·é“"
  },
  {
    "category": "plush",
    "emoji": "ğŸ§¸",
    "id": 196,
    "image": "https://www.jp-api.com/images/tphoto_550149_0_b.png",
    "lat": 34.75768128461472,
    "lng": 135.50995709982112,
    "name": "æ–°é¸çµ„ã€€ã¬ã„ãã‚‹ã¿ã‚­ãƒ¼ãƒã‚§ãƒ¼ãƒ³",
    "region": "è¿‘ç•¿",
    "search_location": "äº¬éƒ½"
  },
  {
    "category": "socks",
    "emoji": "ğŸ§¦",
    "id": 197,
    "image": "https://www.jp-api.com/images/tphoto_550148_0_b.png",
    "lat": 34.95801228024534,
    "lng": 139.04496407002776,
    "name": "æ¡œå³¶ã€€ã‚­ãƒ£ãƒ©ãƒƒãƒˆã‚½ãƒƒã‚¯ã‚¹",
    "region": "å…¶ä»–",
    "search_location": "é¹¿å…å³¶"
  },
  {
    "category": "tag",
    "emoji": "ğŸ·ï¸",
    "id": 198,
    "image": "https://www.jp-api.com/images/tphoto_550147_0_b.png",
    "lat": 35.01620652968359,
    "lng": 139.05881951691114,
    "name": "ã»ãŸã‚‹ã„ã‹ã€€ãƒ€ã‚¤ã‚«ãƒƒãƒˆã‚­ãƒ¼ãƒ›ãƒ«ãƒ€ãƒ¼",
    "region": "å…¶ä»–",
    "search_location": "å¯Œå±±"
  },
  {
    "category": "tag",
    "emoji": "ğŸ·ï¸",
    "id": 199,
    "image": "https://www.jp-api.com/images/tphoto_550146_0_b.png",
    "lat": 34.66998966417272,
    "lng": 135.4960146576557,
    "name": "ã¿ã‹ã‚“ã€€ãƒ€ã‚¤ã‚«ãƒƒãƒˆã‚­ãƒ¼ãƒ›ãƒ«ãƒ€ãƒ¼",
    "region": "è¿‘ç•¿",
    "search_location": "å’Œæ­Œå±±"
  },
  {
    "category": "tag",
    "emoji": "ğŸ·ï¸",
    "id": 200,
    "image": "https://www.jp-api.com/images/tphoto_550145_0_b.png",
    "lat": 35.074309370053165,
    "lng": 139.00906361649314,
    "name": "æç«œã€€ãƒ€ã‚¤ã‚«ãƒƒãƒˆã‚­ãƒ¼ãƒ›ãƒ«ãƒ€ãƒ¼",
    "region": "å…¶ä»–",
    "search_location": "ç¦äº•"
  },
  {
    "category": "tag",
    "emoji": "ğŸ·ï¸",
    "id": 201,
    "image": "https://www.jp-api.com/images/tphoto_550144_0_b.png",
    "lat": 35.695405562779186,
    "lng": 139.63706721571015,
    "name": "ä¸­è¯è¡—ã€€ãƒ€ã‚¤ã‚«ãƒƒãƒˆã‚­ãƒ¼ãƒ›ãƒ«ãƒ€ãƒ¼",
    "region": "é—œæ±",
    "search_location": "ç¥æˆ¶"
  },
  {
    "category": "tag",
    "emoji": "ğŸ·ï¸",
    "id": 202,
    "image": "https://www.jp-api.com/images/tphoto_550143_0_b.png",
    "lat": 35.020239335530206,
    "lng": 138.94965141085078,
    "name": "Dr.Yellowã€€ãƒ€ã‚¤ã‚«ãƒƒãƒˆã‚­ãƒ¼ãƒ›ãƒ«ãƒ€ãƒ¼",
    "region": "å…¶ä»–",
    "search_location": "æ±æµ·ï¼è¥¿æ—¥æœ¬"
  },
  {
    "category": "tag",
    "emoji": "ğŸ·ï¸",
    "id": 203,
    "image": "https://www.jp-api.com/images/tphoto_550142_0_b.png",
    "lat": 35.017976073780034,
    "lng": 138.92679329982042,
    "name": "N700Sã€€ãƒ€ã‚¤ã‚«ãƒƒãƒˆã‚­ãƒ¼ãƒ›ãƒ«ãƒ€ãƒ¼",
    "region": "å…¶ä»–",
    "search_location": "æ±æµ·ï¼è¥¿æ—¥æœ¬"
  },
  {
    "category": "tag",
    "emoji": "ğŸ·ï¸",
    "id": 204,
    "image": "https://www.jp-api.com/images/tphoto_550141_0_b.png",
    "lat": 35.06168120357562,
    "lng": 138.95907841495134,
    "name": "E7ã€€ãƒ€ã‚¤ã‚«ãƒƒãƒˆã‚­ãƒ¼ãƒ›ãƒ«ãƒ€ãƒ¼",
    "region": "å…¶ä»–",
    "search_location": "æ±æ—¥æœ¬"
  },
  {
    "category": "tag",
    "emoji": "ğŸ·ï¸",
    "id": 205,
    "image": "https://www.jp-api.com/images/tphoto_550140_0_b.png",
    "lat": 35.03728940856846,
    "lng": 139.04587622063144,
    "name": "ã¯ã‚„ã¶ã•ã€€ãƒ€ã‚¤ã‚«ãƒƒãƒˆã‚­ãƒ¼ãƒ›ãƒ«ãƒ€ãƒ¼",
    "region": "å…¶ä»–",
    "search_location": "æ±æ—¥æœ¬"
  },
  {
    "category": "tag",
    "emoji": "ğŸ·ï¸",
    "id": 206,
    "image": "https://www.jp-api.com/images/tphoto_550164_0_b.png",
    "lat": 35.03812358731427,
    "lng": 138.9869748521897,
    "name": "å…¼å…­åœ’ã€€ãƒ€ã‚¤ã‚«ãƒƒãƒˆã‚­ãƒ¼ãƒ›ãƒ«ãƒ€ãƒ¼",
    "region": "å…¶ä»–",
    "search_location": "çŸ³å·"
  },
  {
    "category": "tag",
    "emoji": "ğŸ·ï¸",
    "id": 207,
    "image": "https://www.jp-api.com/images/tphoto_550139_0_b.png",
    "lat": 34.988939206819516,
    "lng": 138.982248465004,
    "name": "æ¸©æ³‰ã€€ãƒ€ã‚¤ã‚«ãƒƒãƒˆã‚­ãƒ¼ãƒ›ãƒ«ãƒ€ãƒ¼",
    "region": "å…¶ä»–",
    "search_location": "å¤§åˆ†"
  },
  {
    "category": "tag",
    "emoji": "ğŸ·ï¸",
    "id": 208,
    "image": "https://www.jp-api.com/images/tphoto_550138_0_b.png",
    "lat": 35.07424224321803,
    "lng": 138.9607225062692,
    "name": "ä¿¡æ¥½ãŸã¬ãã€€ãƒ€ã‚¤ã‚«ãƒƒãƒˆã‚­ãƒ¼ãƒ›ãƒ«ãƒ€ãƒ¼",
    "region": "å…¶ä»–",
    "search_location": "æ»‹è³€"
  },
  {
    "category": "tag",
    "emoji": "ğŸ·ï¸",
    "id": 209,
    "image": "https://www.jp-api.com/images/tphoto_550137_0_b.png",
    "lat": 35.04213057030436,
    "lng": 139.0348224408368,
    "name": "é‡‘ã®è±šã€€ãƒ€ã‚¤ã‚«ãƒƒãƒˆã‚­ãƒ¼ãƒ›ãƒ«ãƒ€ãƒ¼",
    "region": "å…¶ä»–",
    "search_location": "æ©«æ¿±"
  },
  {
    "category": "tag",
    "emoji": "ğŸ·ï¸",
    "id": 210,
    "image": "https://www.jp-api.com/images/tphoto_550136_0_b.png",
    "lat": 35.14043957742396,
    "lng": 136.87289747360757,
    "name": "å°å€‰ãƒˆãƒ¼ã‚¹ãƒˆã€€ãƒ€ã‚¤ã‚«ãƒƒãƒˆã‚­ãƒ¼ãƒ›ãƒ«ãƒ€ãƒ¼",
    "region": "ä¸­éƒ¨",
    "search_location": "åå¤å±‹"
  },
  {
    "category": "tag",
    "emoji": "ğŸ·ï¸",
    "id": 211,
    "image": "https://www.jp-api.com/images/tphoto_550135_0_b.png",
    "lat": 34.964378298504634,
    "lng": 139.06457589977117,
    "name": "ãƒãƒŠãƒŠã®å©ãå£²ã‚Šã€€ãƒ€ã‚¤ã‚«ãƒƒãƒˆã‚­ãƒ¼ãƒ›ãƒ«ãƒ€ãƒ¼",
    "region": "å…¶ä»–",
    "search_location": "åŒ—ä¹å·"
  },
  {
    "category": "tag",
    "emoji": "ğŸ·ï¸",
    "id": 212,
    "image": "https://www.jp-api.com/images/tphoto_550134_0_b.png",
    "lat": 35.01742211865671,
    "lng": 138.95662892701776,
    "name": "ã•ã‚‹ã¼ã¼ã€€ãƒ€ã‚¤ã‚«ãƒƒãƒˆã‚­ãƒ¼ãƒ›ãƒ«ãƒ€ãƒ¼",
    "region": "å…¶ä»–",
    "search_location": "é£›é©’"
  },
  {
    "category": "tag",
    "emoji": "ğŸ·ï¸",
    "id": 213,
    "image": "https://www.jp-api.com/images/tphoto_550133_0_b.png",
    "lat": 34.6875845284677,
    "lng": 135.52810197279663,
    "name": "å¤§é˜ªåŸã€€ãƒ€ã‚¤ã‚«ãƒƒãƒˆã‚­ãƒ¼ãƒ›ãƒ«ãƒ€ãƒ¼",
    "region": "è¿‘ç•¿",
    "search_location": "å¤§é˜ª"
  },
  {
    "category": "tag",
    "emoji": "ğŸ·ï¸",
    "id": 214,
    "image": "https://www.jp-api.com/images/tphoto_550132_0_b.png",
    "lat": 35.00507045356178,
    "lng": 138.96988099004864,
    "name": "å½¦æ ¹åŸã€€ãƒ€ã‚¤ã‚«ãƒƒãƒˆã‚­ãƒ¼ãƒ›ãƒ«ãƒ€ãƒ¼",
    "region": "å…¶ä»–",
    "search_location": "æ»‹è³€"
  },
  {
    "category": "tag",
    "emoji": "ğŸ·ï¸",
    "id": 215,
    "image": "https://www.jp-api.com/images/tphoto_550131_0_b.png",
    "lat": 35.03336144747795,
    "lng": 138.93763397316874,
    "name": "å¿è€…ã€€ãƒ€ã‚¤ã‚«ãƒƒãƒˆã‚­ãƒ¼ãƒ›ãƒ«ãƒ€ãƒ¼",
    "region": "å…¶ä»–",
    "search_location": "æ»‹è³€"
  },
  {
    "category": "tag",
    "emoji": "ğŸ·ï¸",
    "id": 216,
    "image": "https://www.jp-api.com/images/tphoto_550130_0_b.png",
    "lat": 34.45471445315123,
    "lng": 132.46186639238587,
    "name": "æ¡ƒå¤ªéƒã€€ãƒ€ã‚¤ã‚«ãƒƒãƒˆã‚­ãƒ¼ãƒ›ãƒ«ãƒ€ãƒ¼",
    "region": "ä¸­åœ‹",
    "search_location": "å²¡å±±"
  },
  {
    "category": "plush",
    "emoji": "ğŸ§¸",
    "id": 217,
    "image": "https://www.jp-api.com/images/tphoto_550128_0_b.png",
    "lat": 34.954693722352914,
    "lng": 139.03776644763667,
    "name": "ã‚¹ã‚«ã‚¤ãƒ™ãƒªãƒ¼ã€€ã¬ã„ãã‚‹ã¿ã‚­ãƒ¼ãƒã‚§ãƒ¼ãƒ³",
    "region": "å…¶ä»–",
    "search_location": "æ ƒæœ¨"
  },
  {
    "category": "plush",
    "emoji": "ğŸ§¸",
    "id": 218,
    "image": "https://www.jp-api.com/images/tphoto_550126_0_b.png",
    "lat": 34.4507044666334,
    "lng": 132.43693338039017,
    "name": "ã‚‚ã¿ã˜é¥…é ­ã€€ã¬ã„ãã‚‹ã¿ã‚­ãƒ¼ãƒã‚§ãƒ¼ãƒ³",
    "region": "ä¸­åœ‹",
    "search_location": "åºƒå³¶"
  },
  {
    "category": "plush",
    "emoji": "ğŸ§¸",
    "id": 219,
    "image": "https://www.jp-api.com/images/tphoto_550125_0_b.png",
    "lat": 36.62082711105606,
    "lng": 138.59788116707406,
    "name": "è‰æ´¥æ¸©æ³‰ã€€ã¬ã„ãã‚‹ã¿ã‚­ãƒ¼ãƒã‚§ãƒ¼ãƒ³",
    "region": "é—œæ±",
    "search_location": "ç¾¤é¦¬"
  },
  {
    "category": "plush",
    "emoji": "ğŸ§¸",
    "id": 220,
    "image": "https://www.jp-api.com/images/tphoto_550124_0_b.png",
    "lat": 35.115868143838625,
    "lng": 136.89829772496097,
    "name": "æŠ¹èŒ¶ã‚½ãƒ•ãƒˆã€€ã¬ã„ãã‚‹ã¿ã‚­ãƒ¼ãƒã‚§ãƒ¼ãƒ³",
    "region": "ä¸­éƒ¨",
    "search_location": "äº¬éƒ½"
  },
  {
    "category": "plush",
    "emoji": "ğŸ§¸",
    "id": 221,
    "image": "https://www.jp-api.com/images/tphoto_550123_0_b.png",
    "lat": 35.05018048209693,
    "lng": 138.97460729073777,
    "name": "æ¸©æ³‰ã€€ã¬ã„ãã‚‹ã¿ã‚­ãƒ¼ãƒã‚§ãƒ¼ãƒ³",
    "region": "å…¶ä»–",
    "search_location": "æº«æ³‰åœ°"
  },
  {
    "category": "plush",
    "emoji": "ğŸ§¸",
    "id": 222,
    "image": "https://www.jp-api.com/images/tphoto_550122_0_b.png",
    "lat": 35.026655130173,
    "lng": 139.04028514000606,
    "name": "é»„é–€æ§˜ã€€ã¬ã„ãã‚‹ã¿ã‚­ãƒ¼ãƒã‚§ãƒ¼ãƒ³",
    "region": "å…¶ä»–",
    "search_location": "èŒ¨åŸ"
  },
  {
    "category": "plush",
    "emoji": "ğŸ§¸",
    "id": 223,
    "image": "https://www.jp-api.com/images/tphoto_550121_0_b.png",
    "lat": 34.9628892592792,
    "lng": 139.01186415252857,
    "name": "ã‚¹ãƒãƒœãƒ¼ã€€ã¬ã„ãã‚‹ã¿ã‚­ãƒ¼ãƒã‚§ãƒ¼ãƒ³",
    "region": "å…¶ä»–",
    "search_location": "åº¦å‡åœ°"
  },
  {
    "category": "plush",
    "emoji": "ğŸ§¸",
    "id": 224,
    "image": "https://www.jp-api.com/images/tphoto_550120_0_b.png",
    "lat": 34.97631269087818,
    "lng": 139.05426818320603,
    "name": "ã‚¹ã‚­ãƒ¼ã€€ã¬ã„ãã‚‹ã¿ã‚­ãƒ¼ãƒã‚§ãƒ¼ãƒ³",
    "region": "å…¶ä»–",
    "search_location": "åº¦å‡åœ°"
  },
  {
    "category": "socks",
    "emoji": "ğŸ§¦",
    "id": 225,
    "image": "https://www.jp-api.com/images/tphoto_550119_0_b.png",
    "lat": 34.69596345275171,
    "lng": 135.47030920599323,
    "name": "çµç¶æ¹–ã€€ã‚­ãƒ£ãƒ©ãƒƒãƒˆã‚½ãƒƒã‚¯ã‚¹",
    "region": "è¿‘ç•¿",
    "search_location": "æ»‹è³€"
  },
  {
    "category": "tag",
    "emoji": "ğŸ·ï¸",
    "id": 226,
    "image": "https://www.jp-api.com/images/tphoto_550118_0_b.png",
    "lat": 43.01126122119837,
    "lng": 141.34787590336026,
    "name": "åŒ—æµ·é“ã€€ãƒ€ã‚¤ã‚«ãƒƒãƒˆã‚­ãƒ¼ãƒ›ãƒ«ãƒ€ãƒ¼",
    "region": "åŒ—æµ·é“",
    "search_location": "åŒ—æµ·é“"
  },
  {
    "category": "tag",
    "emoji": "ğŸ·ï¸",
    "id": 227,
    "image": "https://www.jp-api.com/images/tphoto_550117_0_b.png",
    "lat": 35.03428921898002,
    "lng": 139.0126207810184,
    "name": "ç‰ã­ãã€€ãƒ€ã‚¤ã‚«ãƒƒãƒˆã‚­ãƒ¼ãƒ›ãƒ«ãƒ€ãƒ¼",
    "region": "å…¶ä»–",
    "search_location": "æ·¡è·¯"
  },
  {
    "category": "tag",
    "emoji": "ğŸ·ï¸",
    "id": 228,
    "image": "https://www.jp-api.com/images/tphoto_550116_0_b.png",
    "lat": 34.33132129743377,
    "lng": 132.44245773479642,
    "name": "ãƒ¬ãƒ¢ãƒ³ã€€ãƒ€ã‚¤ã‚«ãƒƒãƒˆã‚­ãƒ¼ãƒ›ãƒ«ãƒ€ãƒ¼",
    "region": "ä¸­åœ‹",
    "search_location": "ç€¨æˆ¶å…§"
  },
  {
    "category": "tag",
    "emoji": "ğŸ·ï¸",
    "id": 229,
    "image": "https://www.jp-api.com/images/tphoto_550115_0_b.png",
    "lat": 35.02425745104482,
    "lng": 138.97084082471974,
    "name": "ã‚»ãƒ¼ãƒ©ãƒ¼ã€€ãƒ€ã‚¤ã‚«ãƒƒãƒˆã‚­ãƒ¼ãƒ›ãƒ«ãƒ€ãƒ¼",
    "region": "å…¶ä»–",
    "search_location": "ç¥æˆ¶"
  },
  {
    "category": "tag",
    "emoji": "ğŸ·ï¸",
    "id": 230,
    "image": "https://www.jp-api.com/images/tphoto_550114_0_b.png",
    "lat": 34.681208560272715,
    "lng": 135.44543651732016,
    "name": "çœŸç ã€€ãƒ€ã‚¤ã‚«ãƒƒãƒˆã‚­ãƒ¼ãƒ›ãƒ«ãƒ€ãƒ¼",
    "region": "è¿‘ç•¿",
    "search_location": "ä¸‰é‡"
  },
  {
    "category": "tag",
    "emoji": "ğŸ·ï¸",
    "id": 231,
    "image": "https://www.jp-api.com/images/tphoto_550113_0_b.png",
    "lat": 35.022632429179225,
    "lng": 139.05702243832192,
    "name": "å‚æœ¬é¾é¦¬ã€€ãƒ€ã‚¤ã‚«ãƒƒãƒˆã‚­ãƒ¼ãƒ›ãƒ«ãƒ€ãƒ¼",
    "region": "å…¶ä»–",
    "search_location": "é«˜çŸ¥"
  },
  {
    "category": "tag",
    "emoji": "ğŸ·ï¸",
    "id": 232,
    "image": "https://www.jp-api.com/images/tphoto_550112_0_b.png",
    "lat": 34.75353240239577,
    "lng": 135.4905069922511,
    "name": "ã¿ã‹ã‚“ã€€ãƒ€ã‚¤ã‚«ãƒƒãƒˆã‚­ãƒ¼ãƒ›ãƒ«ãƒ€ãƒ¼",
    "region": "è¿‘ç•¿",
    "search_location": "æ„›åª›"
  },
  {
    "category": "socks",
    "emoji": "ğŸ§¦",
    "id": 233,
    "image": "https://www.jp-api.com/images/tphoto_550111_0_b.png",
    "lat": 35.00879336022417,
    "lng": 138.93599701507205,
    "name": "ã‚¹ã‚­ãƒ¼ã€€ã‚­ãƒ£ãƒ©ãƒƒãƒˆã‚½ãƒƒã‚¯ã‚¹",
    "region": "å…¶ä»–",
    "search_location": "åº¦å‡åœ°"
  },
  {
    "category": "socks",
    "emoji": "ğŸ§¦",
    "id": 234,
    "image": "https://www.jp-api.com/images/tphoto_550110_0_b.png",
    "lat": 34.95801552229963,
    "lng": 139.00425161582618,
    "name": "ã‚¹ãƒãƒœãƒ¼ã€€ã‚­ãƒ£ãƒ©ãƒƒãƒˆã‚½ãƒƒã‚¯ã‚¹",
    "region": "å…¶ä»–",
    "search_location": "åº¦å‡åœ°"
  },
  {
    "category": "tag",
    "emoji": "ğŸ·ï¸",
    "id": 235,
    "image": "https://www.jp-api.com/images/tphoto_550109_0_b.png",
    "lat": 34.954166779354736,
    "lng": 138.9300835424417,
    "name": "æ¸¦æ½®ã€€ãƒ€ã‚¤ã‚«ãƒƒãƒˆã‚­ãƒ¼ãƒ›ãƒ«ãƒ€ãƒ¼",
    "region": "å…¶ä»–",
    "search_location": "é³´é–€"
  },
  {
    "category": "plush",
    "emoji": "ğŸ§¸",
    "id": 236,
    "image": "https://www.jp-api.com/images/tphoto_550108_0_b.png",
    "lat": 33.63421197102378,
    "lng": 130.393631111886,
    "name": "ã‚ã¾ãŠã†ã€€ã¬ã„ãã‚‹ã¿ã‚­ãƒ¼ãƒã‚§ãƒ¼ãƒ³",
    "region": "ä¹å·",
    "search_location": "ç¦å²¡"
  },
  {
    "category": "tag",
    "emoji": "ğŸ·ï¸",
    "id": 237,
    "image": "https://www.jp-api.com/images/tphoto_550105_0_b.png",
    "lat": 38.32988988869259,
    "lng": 140.87097610686325,
    "name": "ã‚Šã‚“ã”ã€€ãƒ€ã‚¤ã‚«ãƒƒãƒˆã‚­ãƒ¼ãƒ›ãƒ«ãƒ€ãƒ¼",
    "region": "æ±åŒ—",
    "search_location": "é’æ£®"
  },
  {
    "category": "plush",
    "emoji": "ğŸ§¸",
    "id": 238,
    "image": "https://www.jp-api.com/images/tphoto_550104_0_b.png",
    "lat": 32.80846193435771,
    "lng": 130.7037956833213,
    "name": "ç†Šæœ¬åŸã€€ã¬ã„ãã‚‹ã¿ã‚­ãƒ¼ãƒã‚§ãƒ¼ãƒ³",
    "region": "åŒ—æµ·é“",
    "search_location": "ç†Šæœ¬"
  },
  {
    "category": "tag",
    "emoji": "ğŸ·ï¸",
    "id": 239,
    "image": "https://www.jp-api.com/images/tphoto_550103_0_b.png",
    "lat": 35.14118758369496,
    "lng": 136.97669058566063,
    "name": "æŠ¹èŒ¶ã‚½ãƒ•ãƒˆã€€ãƒ€ã‚¤ã‚«ãƒƒãƒˆã‚­ãƒ¼ãƒ›ãƒ«ãƒ€ãƒ¼",
    "region": "ä¸­éƒ¨",
    "search_location": "äº¬éƒ½"
  },
  {
    "category": "plush",
    "emoji": "ğŸ§¸",
    "id": 240,
    "image": "https://www.jp-api.com/images/tphoto_550102_0_b.png",
    "lat": 34.96744740000426,
    "lng": 135.77150838459494,
    "name": "ä¼è¦‹ç¨²è·ã€€ã¬ã„ãã‚‹ã¿ã‚­ãƒ¼ãƒã‚§ãƒ¼ãƒ³",
    "region": "è¿‘ç•¿",
    "search_location": "äº¬éƒ½"
  },
  {
    "category": "tag",
    "emoji": "ğŸ·ï¸",
    "id": 241,
    "image": "https://www.jp-api.com/images/tphoto_550101_0_b.png",
    "lat": 34.7584852674402,
    "lng": 135.55247399720776,
    "name": "å…«ãƒƒæ©‹ã€€ãƒ€ã‚¤ã‚«ãƒƒãƒˆã‚­ãƒ¼ãƒ›ãƒ«ãƒ€ãƒ¼",
    "region": "è¿‘ç•¿",
    "search_location": "äº¬éƒ½"
  },
  {
    "category": "tag",
    "emoji": "ğŸ·ï¸",
    "id": 242,
    "image": "https://www.jp-api.com/images/tphoto_550100_0_b.png",
    "lat": 34.73426948829902,
    "lng": 135.4433106139107,
    "name": "æ–°é¸çµ„ã€€ãƒ€ã‚¤ã‚«ãƒƒãƒˆã‚­ãƒ¼ãƒ›ãƒ«ãƒ€ãƒ¼",
    "region": "è¿‘ç•¿",
    "search_location": "äº¬éƒ½"
  },
  {
    "category": "tag",
    "emoji": "ğŸ·ï¸",
    "id": 243,
    "image": "https://www.jp-api.com/images/tphoto_550099_0_b.png",
    "lat": 34.933057481586076,
    "lng": 139.06801654565828,
    "name": "ç¬¹ã‹ã¾ã€€ãƒ€ã‚¤ã‚«ãƒƒãƒˆã‚­ãƒ¼ãƒ›ãƒ«ãƒ€ãƒ¼",
    "region": "å…¶ä»–",
    "search_location": "å®®åŸ"
  },
  {
    "category": "plush",
    "emoji": "ğŸ§¸",
    "id": 244,
    "image": "https://www.jp-api.com/images/tphoto_550098_0_b.png",
    "lat": 38.243779903916696,
    "lng": 140.9336507583673,
    "name": "ä¼Šé”æ”¿å®—ã€€ã¬ã„ãã‚‹ã¿ã‚­ãƒ¼ãƒã‚§ãƒ¼ãƒ³",
    "region": "æ±åŒ—",
    "search_location": "å®®åŸ"
  },
  {
    "category": "tag",
    "emoji": "ğŸ·ï¸",
    "id": 245,
    "image": "https://www.jp-api.com/images/tphoto_550097_0_b.png",
    "lat": 38.32998885346369,
    "lng": 140.9071266858016,
    "name": "ã“ã‘ã—ã€€ãƒ€ã‚¤ã‚«ãƒƒãƒˆã‚­ãƒ¼ãƒ›ãƒ«ãƒ€ãƒ¼",
    "region": "æ±åŒ—",
    "search_location": "å®®åŸ"
  },
  {
    "category": "socks",
    "emoji": "ğŸ§¦",
    "id": 246,
    "image": "https://www.jp-api.com/images/tphoto_550096_0_b.png",
    "lat": 35.06877107804151,
    "lng": 138.9978031567415,
    "name": "é»„é–€æ§˜ã€€ã‚­ãƒ£ãƒ©ãƒƒãƒˆã‚½ãƒƒã‚¯ã‚¹",
    "region": "å…¶ä»–",
    "search_location": "èŒ¨åŸ"
  },
  {
    "category": "tag",
    "emoji": "ğŸ·ï¸",
    "id": 247,
    "image": "https://www.jp-api.com/images/tphoto_550095_0_b.png",
    "lat": 34.959216174699804,
    "lng": 139.01205840837218,
    "name": "ã‚¹ãƒãƒœãƒ¼ã€€ãƒ€ã‚¤ã‚«ãƒƒãƒˆã‚­ãƒ¼ãƒ›ãƒ«ãƒ€ãƒ¼",
    "region": "å…¶ä»–",
    "search_location": "åº¦å‡åœ°"
  },
  {
    "category": "tag",
    "emoji": "ğŸ·ï¸",
    "id": 248,
    "image": "https://www.jp-api.com/images/tphoto_550094_0_b.png",
    "lat": 34.982386337371345,
    "lng": 138.9316831023229,
    "name": "ã‚¹ã‚­ãƒ¼ã€€ãƒ€ã‚¤ã‚«ãƒƒãƒˆã‚­ãƒ¼ãƒ›ãƒ«ãƒ€ãƒ¼",
    "region": "å…¶ä»–",
    "search_location": "åº¦å‡åœ°"
  },
  {
    "category": "socks",
    "emoji": "ğŸ§¦",
    "id": 249,
    "image": "https://www.jp-api.com/images/tphoto_550093_0_b.png",
    "lat": 35.64025419826875,
    "lng": 139.66496028300188,
    "name": "ãƒ‘ãƒ³ãƒ€ã€€ã‚­ãƒ£ãƒ©ãƒƒãƒˆã‚½ãƒƒã‚¯ã‚¹",
    "region": "é—œæ±",
    "search_location": "å’Œæ­Œå±±"
  },
  {
    "category": "socks",
    "emoji": "ğŸ§¦",
    "id": 250,
    "image": "https://www.jp-api.com/images/tphoto_550092_0_b.png",
    "lat": 35.00629896435873,
    "lng": 138.9376909563557,
    "name": "ç¬¹ã‹ã¾ã€€ã‚­ãƒ£ãƒ©ãƒƒãƒˆã‚½ãƒƒã‚¯ã‚¹",
    "region": "å…¶ä»–",
    "search_location": "å®®åŸ"
  },
  {
    "category": "tag",
    "emoji": "ğŸ·ï¸",
    "id": 251,
    "image": "https://www.jp-api.com/images/tphoto_550091_0_b.png",
    "lat": 35.658156448810445,
    "lng": 139.62934081183985,
    "name": "è½èŠ±ç”Ÿã€€ãƒ€ã‚¤ã‚«ãƒƒãƒˆã‚­ãƒ¼ãƒ›ãƒ«ãƒ€ãƒ¼",
    "region": "é—œæ±",
    "search_location": "åƒè‘‰"
  },
  {
    "category": "tag",
    "emoji": "ğŸ·ï¸",
    "id": 252,
    "image": "https://www.jp-api.com/images/tphoto_550090_0_b.png",
    "lat": 34.757283738923846,
    "lng": 135.5264453542914,
    "name": "çµç¶æ¹–ã€€ãƒ€ã‚¤ã‚«ãƒƒãƒˆã‚­ãƒ¼ãƒ›ãƒ«ãƒ€ãƒ¼",
    "region": "è¿‘ç•¿",
    "search_location": "æ»‹è³€"
  },
  {
    "category": "tag",
    "emoji": "ğŸ·ï¸",
    "id": 253,
    "image": "https://www.jp-api.com/images/tphoto_550089_0_b.png",
    "lat": 34.68684890586527,
    "lng": 135.80316032194924,
    "name": "å®®å³¶ã®é¹¿ã€€ãƒ€ã‚¤ã‚«ãƒƒãƒˆã‚­ãƒ¼ãƒ›ãƒ«ãƒ€ãƒ¼",
    "region": "è¿‘ç•¿",
    "search_location": "åºƒå³¶"
  },
  {
    "category": "socks",
    "emoji": "ğŸ§¦",
    "id": 254,
    "image": "https://www.jp-api.com/images/tphoto_550088_0_b.png",
    "lat": 32.806870869875205,
    "lng": 130.7033130129795,
    "name": "ç†Šæœ¬åŸã€€ã‚­ãƒ£ãƒ©ãƒƒãƒˆã‚½ãƒƒã‚¯ã‚¹",
    "region": "åŒ—æµ·é“",
    "search_location": "ç†Šæœ¬"
  },
  {
    "category": "socks",
    "emoji": "ğŸ§¦",
    "id": 255,
    "image": "https://www.jp-api.com/images/tphoto_550087_0_b.png",
    "lat": 34.955612365923024,
    "lng": 139.01881425358346,
    "name": "ç¬¹å›£å­ã€€ã‚­ãƒ£ãƒ©ãƒƒãƒˆã‚½ãƒƒã‚¯ã‚¹",
    "region": "å…¶ä»–",
    "search_location": "æ–°æ½Ÿ"
  },
  {
    "category": "socks",
    "emoji": "ğŸ§¦",
    "id": 256,
    "image": "https://www.jp-api.com/images/tphoto_550086_0_b.png",
    "lat": 34.98329581415141,
    "lng": 139.07336996991472,
    "name": "ãƒ›ã‚¿ãƒ«ã‚¤ã‚«ã€€ã‚­ãƒ£ãƒ©ãƒƒãƒˆã‚½ãƒƒã‚¯ã‚¹",
    "region": "å…¶ä»–",
    "search_location": "å¯Œå±±"
  },
  {
    "category": "socks",
    "emoji": "ğŸ§¦",
    "id": 257,
    "image": "https://www.jp-api.com/images/tphoto_550085_0_b.png",
    "lat": 34.672086505272915,
    "lng": 135.46986212221174,
    "name": "æ–°é¸çµ„ã€€ã‚­ãƒ£ãƒ©ãƒƒãƒˆã‚½ãƒƒã‚¯ã‚¹",
    "region": "è¿‘ç•¿",
    "search_location": "äº¬éƒ½"
  },
  {
    "category": "plush",
    "emoji": "ğŸ§¸",
    "id": 258,
    "image": "https://www.jp-api.com/images/tphoto_550084_0_b.png",
    "lat": 34.37350417149582,
    "lng": 132.4657035245799,
    "name": "æ¡ƒå¤ªéƒã€€ã¬ã„ãã‚‹ã¿ã‚­ãƒ¼ãƒã‚§ãƒ¼ãƒ³",
    "region": "ä¸­åœ‹",
    "search_location": "å²¡å±±"
  },
  {
    "category": "plush",
    "emoji": "ğŸ§¸",
    "id": 259,
    "image": "https://www.jp-api.com/images/tphoto_550083_0_b.png",
    "lat": 34.36179307962897,
    "lng": 132.397808847062,
    "name": "ãƒ¬ãƒ¢ãƒ³ã€€ã¬ã„ãã‚‹ã¿ã‚­ãƒ¼ãƒã‚§ãƒ¼ãƒ³",
    "region": "ä¸­åœ‹",
    "search_location": "ç€¨æˆ¶å…§"
  },
  {
    "category": "plush",
    "emoji": "ğŸ§¸",
    "id": 260,
    "image": "https://www.jp-api.com/images/tphoto_550082_0_b.png",
    "lat": 38.24296969001225,
    "lng": 140.82657953213385,
    "name": "ã•ãã‚‰ã‚“ã¼ã€€ã¬ã„ãã‚‹ã¿ã‚­ãƒ¼ãƒã‚§ãƒ¼ãƒ³",
    "region": "æ±åŒ—",
    "search_location": "å±±å½¢"
  },
  {
    "category": "tag",
    "emoji": "ğŸ·ï¸",
    "id": 261,
    "image": "https://www.jp-api.com/images/tphoto_550081_0_b.png",
    "lat": 35.61726186861808,
    "lng": 139.70747020245773,
    "name": "æ±äº¬ã‚¹ã‚«ã‚¤ãƒ„ãƒªãƒ¼ã€€ãƒ€ã‚¤ã‚«ãƒƒãƒˆã‚­ãƒ¼ãƒ›ãƒ«ãƒ€ãƒ¼",
    "region": "é—œæ±",
    "search_location": "æ±äº¬"
  },
  {
    "category": "tag",
    "emoji": "ğŸ·ï¸",
    "id": 262,
    "image": "https://www.jp-api.com/images/tphoto_550080_0_b.png",
    "lat": 35.05296840525186,
    "lng": 139.00050464575642,
    "name": "é»„é–€æ§˜ã€€ãƒ€ã‚¤ã‚«ãƒƒãƒˆã‚­ãƒ¼ãƒ›ãƒ«ãƒ€ãƒ¼",
    "region": "å…¶ä»–",
    "search_location": "èŒ¨åŸ"
  },
  {
    "category": "socks",
    "emoji": "ğŸ§¦",
    "id": 263,
    "image": "https://www.jp-api.com/images/tphoto_550079_0_b.png",
    "lat": 38.19725505231729,
    "lng": 140.8417551891401,
    "name": "ä¼Šé”æ”¿å®—ã€€ã‚­ãƒ£ãƒ©ãƒƒãƒˆã‚½ãƒƒã‚¯ã‚¹",
    "region": "æ±åŒ—",
    "search_location": "å®®åŸ"
  },
  {
    "category": "tag",
    "emoji": "ğŸ·ï¸",
    "id": 264,
    "image": "https://www.jp-api.com/images/tphoto_550078_0_b.png",
    "lat": 38.306046556992186,
    "lng": 140.88138763577714,
    "name": "ä¼Šé”æ”¿å®—ã€€ãƒ€ã‚¤ã‚«ãƒƒãƒˆã‚­ãƒ¼ãƒ›ãƒ«ãƒ€ãƒ¼",
    "region": "æ±åŒ—",
    "search_location": "å®®åŸ"
  },
  {
    "category": "tag",
    "emoji": "ğŸ·ï¸",
    "id": 265,
    "image": "https://www.jp-api.com/images/tphoto_550077_0_b.png",
    "lat": 35.07218069752994,
    "lng": 138.98936183265425,
    "name": "ã ã‚‹ã¾ã€€ãƒ€ã‚¤ã‚«ãƒƒãƒˆã‚­ãƒ¼ãƒ›ãƒ«ãƒ€ãƒ¼",
    "region": "å…¶ä»–",
    "search_location": "ç¾¤é¦¬"
  },
  {
    "category": "tag",
    "emoji": "ğŸ·ï¸",
    "id": 266,
    "image": "https://www.jp-api.com/images/tphoto_550076_0_b.png",
    "lat": 34.369232009046996,
    "lng": 134.10486768969727,
    "name": "ã•ã¬ãã†ã©ã‚“ã€€ãƒ€ã‚¤ã‚«ãƒƒãƒˆã‚­ãƒ¼ãƒ›ãƒ«ãƒ€ãƒ¼",
    "region": "å››åœ‹",
    "search_location": "é¦™å·"
  },
  {
    "category": "socks",
    "emoji": "ğŸ§¦",
    "id": 267,
    "image": "https://www.jp-api.com/images/tphoto_550075_0_b.png",
    "lat": 34.74015046705491,
    "lng": 135.48460488744524,
    "name": "çœŸç ã€€ã‚­ãƒ£ãƒ©ãƒƒãƒˆã‚½ãƒƒã‚¯ã‚¹",
    "region": "è¿‘ç•¿",
    "search_location": "ä¸‰é‡"
  },
  {
    "category": "tag",
    "emoji": "ğŸ·ï¸",
    "id": 268,
    "image": "https://www.jp-api.com/images/tphoto_550071_0_b.png",
    "lat": 38.283598482255506,
    "lng": 140.82091996261798,
    "name": "ã•ãã‚‰ã‚“ã¼ã€€ãƒ€ã‚¤ã‚«ãƒƒãƒˆã‚­ãƒ¼ãƒ›ãƒ«ãƒ€ãƒ¼",
    "region": "æ±åŒ—",
    "search_location": "å±±å½¢"
  },
  {
    "category": "tag",
    "emoji": "ğŸ·ï¸",
    "id": 269,
    "image": "https://www.jp-api.com/images/tphoto_550070_0_b.png",
    "lat": 38.32551552341979,
    "lng": 140.81328996965894,
    "name": "ã‚Šã‚“ã”ã€€ãƒ€ã‚¤ã‚«ãƒƒãƒˆã‚­ãƒ¼ãƒ›ãƒ«ãƒ€ãƒ¼",
    "region": "æ±åŒ—",
    "search_location": "ä¿¡å·"
  },
  {
    "category": "tag",
    "emoji": "ğŸ·ï¸",
    "id": 270,
    "image": "https://www.jp-api.com/images/tphoto_550069_0_b.png",
    "lat": 35.14641237845229,
    "lng": 136.9179808981361,
    "name": "ãŠèŒ¶ã€€ãƒ€ã‚¤ã‚«ãƒƒãƒˆã‚­ãƒ¼ãƒ›ãƒ«ãƒ€ãƒ¼",
    "region": "ä¸­éƒ¨",
    "search_location": "éœå²¡"
  },
  {
    "category": "socks",
    "emoji": "ğŸ§¦",
    "id": 271,
    "image": "https://www.jp-api.com/images/tphoto_550068_0_b.png",
    "lat": 34.636917309038054,
    "lng": 135.4396791218934,
    "name": "å¤§é˜ªã®ãŠã°ã¡ã‚ƒã‚“ã€€ã‚­ãƒ£ãƒ©ãƒƒãƒˆã‚½ãƒƒã‚¯ã‚¹",
    "region": "è¿‘ç•¿",
    "search_location": "å¤§é˜ª"
  },
  {
    "category": "socks",
    "emoji": "ğŸ§¦",
    "id": 272,
    "image": "https://www.jp-api.com/images/tphoto_550067_0_b.png",
    "lat": 34.65001131386615,
    "lng": 135.5056813309718,
    "name": "é€šå¤©é–£ã€€ã‚­ãƒ£ãƒ©ãƒƒãƒˆã‚½ãƒƒã‚¯ã‚¹",
    "region": "è¿‘ç•¿",
    "search_location": "å¤§é˜ª"
  },
  {
    "category": "tag",
    "emoji": "ğŸ·ï¸",
    "id": 273,
    "image": "https://www.jp-api.com/images/tphoto_550066_0_b.png",
    "lat": 35.71271651723487,
    "lng": 139.797515826444,
    "name": "é›·é–€ã€€ãƒ€ã‚¤ã‚«ãƒƒãƒˆã‚­ãƒ¼ãƒ›ãƒ«ãƒ€ãƒ¼",
    "region": "é—œæ±",
    "search_location": "æ±äº¬"
  },
  {
    "category": "tag",
    "emoji": "ğŸ·ï¸",
    "id": 274,
    "image": "https://www.jp-api.com/images/tphoto_550065_0_b.png",
    "lat": 35.041887626951436,
    "lng": 138.94895158587724,
    "name": "ã‚¹ã‚«ã‚¤ãƒ™ãƒªãƒ¼ã€€ãƒ€ã‚¤ã‚«ãƒƒãƒˆã‚­ãƒ¼ãƒ›ãƒ«ãƒ€ãƒ¼",
    "region": "å…¶ä»–",
    "search_location": "æ ƒæœ¨"
  },
  {
    "category": "tag",
    "emoji": "ğŸ·ï¸",
    "id": 275,
    "image": "https://www.jp-api.com/images/tphoto_550064_0_b.png",
    "lat": 35.36036282456939,
    "lng": 138.7293196407955,
    "name": "å¯Œå£«å±±ã€€ãƒ€ã‚¤ã‚«ãƒƒãƒˆã‚­ãƒ¼ãƒ›ãƒ«ãƒ€ãƒ¼",
    "region": "ä¸­éƒ¨",
    "search_location": "å¯Œå£«å±±"
  },
  {
    "category": "socks",
    "emoji": "ğŸ§¦",
    "id": 276,
    "image": "https://www.jp-api.com/images/tphoto_550063_0_b.png",
    "lat": 35.07085475650485,
    "lng": 138.97172313270693,
    "name": "æç«œã€€ã‚­ãƒ£ãƒ©ãƒƒãƒˆã‚½ãƒƒã‚¯ã‚¹",
    "region": "å…¶ä»–",
    "search_location": "ç¦äº•"
  },
  {
    "category": "tag",
    "emoji": "ğŸ·ï¸",
    "id": 277,
    "image": "https://www.jp-api.com/images/tphoto_550062_0_b.png",
    "lat": 38.33237523945643,
    "lng": 140.8545451317982,
    "name": "èµ¤ã¹ã“ã€€ãƒ€ã‚¤ã‚«ãƒƒãƒˆã‚­ãƒ¼ãƒ›ãƒ«ãƒ€ãƒ¼",
    "region": "æ±åŒ—",
    "search_location": "ç¦å³¶"
  },
  {
    "category": "tag",
    "emoji": "ğŸ·ï¸",
    "id": 278,
    "image": "https://www.jp-api.com/images/tphoto_550061_0_b.png",
    "lat": 35.73498707979129,
    "lng": 139.6873052629556,
    "name": "ãƒ‘ãƒ³ãƒ€ã€€ãƒ€ã‚¤ã‚«ãƒƒãƒˆã‚­ãƒ¼ãƒ›ãƒ«ãƒ€ãƒ¼",
    "region": "é—œæ±",
    "search_location": "å’Œæ­Œå±±"
  },
  {
    "category": "socks",
    "emoji": "ğŸ§¦",
    "id": 279,
    "image": "https://www.jp-api.com/images/tphoto_550060_0_b.png",
    "lat": 38.32462928489055,
    "lng": 140.94410436740665,
    "name": "ã“ã‘ã—ã€€ã‚­ãƒ£ãƒ©ãƒƒãƒˆã‚½ãƒƒã‚¯ã‚¹",
    "region": "æ±åŒ—",
    "search_location": "å®®åŸ"
  },
  {
    "category": "socks",
    "emoji": "ğŸ§¦",
    "id": 280,
    "image": "https://www.jp-api.com/images/tphoto_550059_0_b.png",
    "lat": 34.68398396340616,
    "lng": 135.80665499580263,
    "name": "é¹¿ã€€ã‚­ãƒ£ãƒ©ãƒƒãƒˆã‚½ãƒƒã‚¯ã‚¹",
    "region": "è¿‘ç•¿",
    "search_location": "å¥ˆè‰¯"
  },
  {
    "category": "socks",
    "emoji": "ğŸ§¦",
    "id": 281,
    "image": "https://www.jp-api.com/images/tphoto_550058_0_b.png",
    "lat": 34.99072280571605,
    "lng": 138.96099180607575,
    "name": "æ¸©æ³‰ã¾ã‚“ã˜ã‚…ã†ã€€ã‚­ãƒ£ãƒ©ãƒƒãƒˆã‚½ãƒƒã‚¯ã‚¹",
    "region": "å…¶ä»–",
    "search_location": "ç®±æ ¹"
  },
  {
    "category": "other",
    "emoji": "âœ¨",
    "id": 282,
    "image": "https://www.jp-api.com/images/tphoto_550057_0_b.png",
    "lat": 34.65365200468244,
    "lng": 135.50615494110326,
    "name": "é€šå¤©é–£ã€€è¨˜å¿µãƒ¡ãƒ€ãƒ«",
    "region": "è¿‘ç•¿",
    "search_location": "å¤§é˜ª"
  },
  {
    "category": "socks",
    "emoji": "ğŸ§¦",
    "id": 283,
    "image": "https://www.jp-api.com/images/tphoto_550056_0_b.png",
    "lat": 34.31520180476531,
    "lng": 132.4996472987182,
    "name": "ã‚‚ã¿ã˜é¥…é ­ã€€ã‚­ãƒ£ãƒ©ãƒƒãƒˆã‚½ãƒƒã‚¯ã‚¹",
    "region": "ä¸­åœ‹",
    "search_location": "åºƒå³¶"
  },
  {
    "category": "socks",
    "emoji": "ğŸ§¦",
    "id": 284,
    "image": "https://www.jp-api.com/images/tphoto_550055_0_b.png",
    "lat": 34.38996401871845,
    "lng": 132.43637036584695,
    "name": "æ¡ƒå¤ªéƒã€€ã‚­ãƒ£ãƒ©ãƒƒãƒˆã‚½ãƒƒã‚¯ã‚¹",
    "region": "ä¸­åœ‹",
    "search_location": "å²¡å±±"
  },
  {
    "category": "tag",
    "emoji": "ğŸ·ï¸",
    "id": 285,
    "image": "https://www.jp-api.com/images/tphoto_550054_0_b.png",
    "lat": 35.67425853365867,
    "lng": 139.72327879291086,
    "name": "ãƒ‘ãƒ³ãƒ€ã€€ãƒ€ã‚¤ã‚«ãƒƒãƒˆã‚­ãƒ¼ãƒ›ãƒ«ãƒ€ãƒ¼",
    "region": "é—œæ±",
    "search_location": "æ±äº¬"
  },
  {
    "category": "socks",
    "emoji": "ğŸ§¦",
    "id": 286,
    "image": "https://www.jp-api.com/images/tphoto_550052_0_b.png",
    "lat": 33.583677023684764,
    "lng": 130.3588503736087,
    "name": "ã‚ã¾ãŠã†ã€€ã‚­ãƒ£ãƒ©ãƒƒãƒˆã‚½ãƒƒã‚¯ã‚¹",
    "region": "ä¹å·",
    "search_location": "ç¦å²¡"
  },
  {
    "category": "socks",
    "emoji": "ğŸ§¦",
    "id": 287,
    "image": "https://www.jp-api.com/images/tphoto_550051_0_b.png",
    "lat": 38.21209933404927,
    "lng": 140.91787113937625,
    "name": "ã•ãã‚‰ã‚“ã¼ã€€ã‚­ãƒ£ãƒ©ãƒƒãƒˆã‚½ãƒƒã‚¯ã‚¹",
    "region": "æ±åŒ—",
    "search_location": "å±±å½¢"
  },
  {
    "category": "socks",
    "emoji": "ğŸ§¦",
    "id": 288,
    "image": "https://www.jp-api.com/images/tphoto_550050_0_b.png",
    "lat": 34.96043646099063,
    "lng": 138.94582866239094,
    "name": "åˆæŒé€ ã‚Šã€€ã‚­ãƒ£ãƒ©ãƒƒãƒˆã‚½ãƒƒã‚¯ã‚¹",
    "region": "å…¶ä»–",
    "search_location": "é£›é©’"
  },
  {
    "category": "socks",
    "emoji": "ğŸ§¦",
    "id": 289,
    "image": "https://www.jp-api.com/images/tphoto_550049_0_b.png",
    "lat": 34.96662124208314,
    "lng": 135.7706710208687,
    "name": "ä¼è¦‹ç¨²è·ã€€ã‚­ãƒ£ãƒ©ãƒƒãƒˆã‚½ãƒƒã‚¯ã‚¹",
    "region": "è¿‘ç•¿",
    "search_location": "äº¬éƒ½"
  },
  {
    "category": "socks",
    "emoji": "ğŸ§¦",
    "id": 290,
    "image": "https://www.jp-api.com/images/tphoto_550048_0_b.png",
    "lat": 38.231249591628604,
    "lng": 140.9032927169626,
    "name": "èµ¤ã¹ã“ã€€ã‚­ãƒ£ãƒ©ãƒƒãƒˆã‚½ãƒƒã‚¯ã‚¹KIDS",
    "region": "æ±åŒ—",
    "search_location": "ç¦å³¶"
  },
  {
    "category": "socks",
    "emoji": "ğŸ§¦",
    "id": 291,
    "image": "https://www.jp-api.com/images/tphoto_550047_0_b.png",
    "lat": 36.62351084366119,
    "lng": 138.5978900364412,
    "name": "è‰æ´¥æ¸©æ³‰ã€€ã‚­ãƒ£ãƒ©ãƒƒãƒˆã‚½ãƒƒã‚¯ã‚¹",
    "region": "é—œæ±",
    "search_location": "ç¾¤é¦¬"
  },
  {
    "category": "socks",
    "emoji": "ğŸ§¦",
    "id": 292,
    "image": "https://www.jp-api.com/images/tphoto_550046_0_b.png",
    "lat": 35.02074020246824,
    "lng": 139.0715413922162,
    "name": "ã ã‚‹ã¾ã€€ã‚­ãƒ£ãƒ©ãƒƒãƒˆã‚½ãƒƒã‚¯ã‚¹",
    "region": "å…¶ä»–",
    "search_location": "ç¾¤é¦¬"
  },
  {
    "category": "socks",
    "emoji": "ğŸ§¦",
    "id": 293,
    "image": "https://www.jp-api.com/images/tphoto_550045_0_b.png",
    "lat": 34.42339640940011,
    "lng": 132.44866057133473,
    "name": "ãƒ¬ãƒ¢ãƒ³ã€€ã‚­ãƒ£ãƒ©ãƒƒãƒˆã‚½ãƒƒã‚¯ã‚¹",
    "region": "ä¸­åœ‹",
    "search_location": "ç€¨æˆ¶å…§"
  },
  {
    "category": "tag",
    "emoji": "ğŸ·ï¸",
    "id": 294,
    "image": "https://www.jp-api.com/images/tphoto_550044_0_b.png",
    "lat": 34.344837458535494,
    "lng": 132.51631043679993,
    "name": "ã‚‚ã¿ã˜é¥…é ­ã€€ãƒ€ã‚¤ã‚«ãƒƒãƒˆã‚­ãƒ¼ãƒ›ãƒ«ãƒ€ãƒ¼",
    "region": "ä¸­åœ‹",
    "search_location": "åºƒå³¶"
  },
  {
    "category": "tag",
    "emoji": "ğŸ·ï¸",
    "id": 295,
    "image": "https://www.jp-api.com/images/tphoto_550042_0_b.png",
    "lat": 34.73803973579827,
    "lng": 135.46636511282256,
    "name": "ãŸã“ç„¼ã€€ãƒ€ã‚¤ã‚«ãƒƒãƒˆã‚­ãƒ¼ãƒ›ãƒ«ãƒ€ãƒ¼",
    "region": "è¿‘ç•¿",
    "search_location": "å¤§é˜ª"
  },
  {
    "category": "other",
    "emoji": "âœ¨",
    "id": 296,
    "image": "https://www.jp-api.com/images/tphoto_550041_0_b.png",
    "lat": 35.05500439271792,
    "lng": 139.04993735068325,
    "name": "æ¸©æ³‰ã€€ãƒãƒ£ãƒ¼ãƒ ä»˜ãƒœãƒ¼ãƒ«ãƒšãƒ³",
    "region": "å…¶ä»–",
    "search_location": "æº«æ³‰åœ°"
  },
  {
    "category": "tag",
    "emoji": "ğŸ·ï¸",
    "id": 297,
    "image": "https://www.jp-api.com/images/tphoto_550040_0_b.png",
    "lat": 35.14171787732417,
    "lng": 136.9083727423307,
    "name": "ã—ã‚ƒã¡ã»ã“ã€€ãƒ€ã‚¤ã‚«ãƒƒãƒˆã‚­ãƒ¼ãƒ›ãƒ«ãƒ€ãƒ¼",
    "region": "ä¸­éƒ¨",
    "search_location": "åå¤å±‹"
  },
  {
    "category": "plush",
    "emoji": "ğŸ§¸",
    "id": 298,
    "image": "https://www.jp-api.com/images/tphoto_550038_0_b.png",
    "lat": 35.208638601264674,
    "lng": 136.8318325481805,
    "name": "ã—ã‚ƒã¡ã»ã“ã€€ã¬ã„ãã‚‹ã¿ã‚­ãƒ¼ãƒã‚§ãƒ¼ãƒ³",
    "region": "ä¸­éƒ¨",
    "search_location": "åå¤å±‹"
  },
  {
    "category": "plush",
    "emoji": "ğŸ§¸",
    "id": 299,
    "image": "https://www.jp-api.com/images/tphoto_550037_0_b.png",
    "lat": 35.361394798163474,
    "lng": 138.72767912783482,
    "name": "å¯Œå£«å±±ã€€ã¬ã„ãã‚‹ã¿ã‚­ãƒ¼ãƒã‚§ãƒ¼ãƒ³",
    "region": "ä¸­éƒ¨",
    "search_location": "å¯Œå£«å±±"
  },
  {
    "category": "plush",
    "emoji": "ğŸ§¸",
    "id": 300,
    "image": "https://www.jp-api.com/images/tphoto_550035_0_b.png",
    "lat": 34.74432333799496,
    "lng": 135.4638930267401,
    "name": "å…«ãƒƒæ©‹ã€€ã¬ã„ãã‚‹ã¿ã‚­ãƒ¼ãƒã‚§ãƒ¼ãƒ³",
    "region": "è¿‘ç•¿",
    "search_location": "äº¬éƒ½"
  },
  {
    "category": "tag",
    "emoji": "ğŸ·ï¸",
    "id": 301,
    "image": "https://www.jp-api.com/images/tphoto_550034_0_b.png",
    "lat": 35.041638037631195,
    "lng": 138.9482908269409,
    "name": "æ¸©æ³‰ã€€ãƒ€ã‚¤ã‚«ãƒƒãƒˆã‚­ãƒ¼ãƒ›ãƒ«ãƒ€ãƒ¼",
    "region": "å…¶ä»–",
    "search_location": "æº«æ³‰åœ°"
  },
  {
    "category": "socks",
    "emoji": "ğŸ§¦",
    "id": 302,
    "image": "https://www.jp-api.com/images/tphoto_550033_0_b.png",
    "lat": 34.96161379948269,
    "lng": 139.07444535586563,
    "name": "ã‚¹ã‚«ã‚¤ãƒ™ãƒªãƒ¼ã€€ã‚­ãƒ£ãƒ©ãƒƒãƒˆã‚½ãƒƒã‚¯ã‚¹",
    "region": "å…¶ä»–",
    "search_location": "æ ƒæœ¨"
  },
  {
    "category": "socks",
    "emoji": "ğŸ§¦",
    "id": 303,
    "image": "https://www.jp-api.com/images/tphoto_550032_0_b.png",
    "lat": 35.71030029743926,
    "lng": 139.79862581481962,
    "name": "é›·é–€ã€€ã‚­ãƒ£ãƒ©ãƒƒãƒˆã‚½ãƒƒã‚¯ã‚¹",
    "region": "é—œæ±",
    "search_location": "æ±äº¬"
  },
  {
    "category": "socks",
    "emoji": "ğŸ§¦",
    "id": 304,
    "image": "https://www.jp-api.com/images/tphoto_550031_0_b.png",
    "lat": 35.35968019630195,
    "lng": 138.7294006693226,
    "name": "å¯Œå£«å±±ã€€ã‚­ãƒ£ãƒ©ãƒƒãƒˆã‚½ãƒƒã‚¯ã‚¹",
    "region": "ä¸­éƒ¨",
    "search_location": "å¯Œå£«å±±"
  },
  {
    "category": "socks",
    "emoji": "ğŸ§¦",
    "id": 305,
    "image": "https://www.jp-api.com/images/tphoto_550030_0_b.png",
    "lat": 35.256326749207794,
    "lng": 136.86648985570466,
    "name": "ã—ã‚ƒã¡ã»ã“ã€€ã‚­ãƒ£ãƒ©ãƒƒãƒˆã‚½ãƒƒã‚¯ã‚¹",
    "region": "ä¸­éƒ¨",
    "search_location": "åå¤å±‹"
  },
  {
    "category": "socks",
    "emoji": "ğŸ§¦",
    "id": 306,
    "image": "https://www.jp-api.com/images/tphoto_550029_0_b.png",
    "lat": 38.334701189757766,
    "lng": 140.92619613818965,
    "name": "ã‚Šã‚“ã”ã€€ã‚­ãƒ£ãƒ©ãƒƒãƒˆã‚½ãƒƒã‚¯ã‚¹",
    "region": "æ±åŒ—",
    "search_location": "ä¿¡å·"
  },
  {
    "category": "socks",
    "emoji": "ğŸ§¦",
    "id": 307,
    "image": "https://www.jp-api.com/images/tphoto_550028_0_b.png",
    "lat": 34.7120634223587,
    "lng": 135.4747957392075,
    "name": "ãŸã“ç„¼ã€€ã‚­ãƒ£ãƒ©ãƒƒãƒˆã‚½ãƒƒã‚¯ã‚¹",
    "region": "è¿‘ç•¿",
    "search_location": "å¤§é˜ª"
  },
  {
    "category": "socks",
    "emoji": "ğŸ§¦",
    "id": 308,
    "image": "https://www.jp-api.com/images/tphoto_550027_0_b.png",
    "lat": 34.70973228944008,
    "lng": 135.4645525615793,
    "name": "å…«ãƒƒæ©‹ã€€ã‚­ãƒ£ãƒ©ãƒƒãƒˆã‚½ãƒƒã‚¯ã‚¹",
    "region": "è¿‘ç•¿",
    "search_location": "äº¬éƒ½"
  },
  {
    "category": "socks",
    "emoji": "ğŸ§¦",
    "id": 309,
    "image": "https://www.jp-api.com/images/tphoto_550026_0_b.png",
    "lat": 35.03921456843719,
    "lng": 139.02677871802456,
    "name": "æ¸©æ³‰ã€€ã‚­ãƒ£ãƒ©ãƒƒãƒˆã‚½ãƒƒã‚¯ã‚¹",
    "region": "å…¶ä»–",
    "search_location": "æº«æ³‰åœ°"
  },